관광지명,관광지구분,소재지도로명주소,소재지지번주소,위도,경도,면적,공공편익시설정보,숙박시설정보,운동및오락시설정보,휴양및문화시설정보,접객시설정보,지원시설정보,지정일자,수용인원수,주차가능수,관광지소개,관리기관전화번호,관리기관명,데이터기준일자,제공기관코드,제공기관명
산장관광지,관광지,경기도 가평군 상면 덕현산장길 71 산장관광지,경기도 가평군 상면 덕현리 21,37.754183,127.410629,118040.0,도로+주차장+관리사무소+홍수위관리소,"콘도형펜션 1동, 펜션하우스 5동",조경 식재,"캐라반 12동, 캐라반싸이트, 캠핑장, 야외공연장 등",음식점 및 상가 2동 운영,없음,1977-03-31,2700,156,"1977년에 국민관광지로 지정, 자연경관을 최대한 살린 계곡형 관광지로 개발되었으며, 북한강 지류인 조종천의 맑은 물이 한데 어우러져 경치가 아름답다. 주요 시설로는 야영장과 다양한 숙박시설, 계곡자연풀장이 있다.",031-580-2515,경기도 가평군청 관광과,2025-12-24,4160000,경기도 가평군
대성관광지,관광지,경기도 가평군 청평면 대성강변길 14,경기도 가평군 청평면 대성리 601-3,37.681431,127.379521,262722.0,공중화장실(2동)+안내소운영(1동),"휴양콘도, 가족호텔, 방가로, 펜션","유원시설, 다목적운동장, 족구장 등","선착장 3개, 야영장 등",매점+식당 등 4개소 운영,없음,1968-10-04,1000,25,"경춘가도의 대성리역을 중심으로 북한강변 8만여 평에 이루어져 있으며, 산책로, 피크닉장, 자전거도로가 조성되어 있으며, 여러 편의시설도 들어서 있다. 북한강은 수영이  금지되어 있으며, 보트 등 수상스포츠는 즐길 수 있다.",031-580-2517,경기도 가평군청 관광과,2025-12-24,4160000,경기도 가평군
대관령어흘리관광지,관광지,강원특별자치도 강릉시 성산면 삼포암길 17,강원특별자치도 강릉시 성산면 어흘리 508-2,37.719113,128.7959193,163160.0,화장실+주차장,,,대관령박물관,,,2014-12-26,1000,122,"2014년 163천㎡를 관광지로 지정받아, 도로, 주차장, 안내소, 화장실 등의 공공편익시설, 트리하우스, 게스트하우스 등 숙박·휴양문화시설이 조성",033-640-5685,강원특별자치도 강릉시청,2025-11-20,4201000,강원특별자치도 강릉시
등명해변관광지,관광지,강원특별자치도 강릉시 강동면 정동등명길 2,강원특별자치도 강릉시 강동면 정동진리 440-41,37.70232906,129.0161926,193660.0,화장실+주차장,다우리조텔+민박,레일바이크,정동진시간박물관,,,1997-08-02,600,120,소나무와 해변이 어우러져 아름다운 곳,033-640-5685,강원특별자치도 강릉시청,2025-11-20,4201000,강원특별자치도 강릉시
연곡해변관광지,관광지,강원특별자치도 강릉시 연곡면 해안로 1282,강원특별자치도 강릉시 연곡면 동덕리 99-3,37.85990446,128.8520583,169603.0,관리사무소+화장실+주차장+샤워장,"솔향기캠핑장(캠핑존 127면, 카라반존 8면, 자동차 캠핑존 12면)",,,,,1986-03-12,600,120,"길이 700m, 56000㎡의 넓은 백사장을 간직하고 있다.",033-640-5685,강원특별자치도 강릉시청,2025-11-20,4201000,강원특별자치도 강릉시
주문진해변관광지,관광지,강원특별자치도 강릉시 주문진읍 주문북로 222-30,강원특별자치도 강릉시 주문진읍 향호리 8-22,37.91144947,128.8177557,484200.0,화장실+주차장+샤워장,베네키아호텔,,교직원연수원,,,1984-07-06,1000,250,주문진해변관광지는 주문진읍 향호리에 위치하고 넓은 백사장과 수심이 얕고 바닷물이 맑아 가족 단위 피서지에 적합한 곳임.,033-640-5685,강원특별자치도 강릉시청,2025-11-20,4201000,강원특별자치도 강릉시
옥계해변관광지,관광지,강원특별자치도 강릉시 옥계면 금진솔밭길 104-29,강원특별자치도 강릉시 옥계면 금진리 799-16,37.62673237,129.0485254,215839.0,화장실+주차장+샤워장,,,한국여성수련원,,,1980-05-28,900,180,옥계해변관광지는 깨끗하고 넓은 백사장과 오래된 송림지역을 갖추어 바라보는 경치가 매우 아름다운 곳임.,033-640-5685,강원특별자치도 강릉시청,2025-11-20,4201000,강원특별자치도 강릉시
금정산성마을,관광지,부산광역시 금정구 산성로 452,부산광역시 금정구 금성동 554-3,35.250339,129.0561338,7450.0,미술관+문화체험촌,,,,,,1994-01-01,100,100,금정산성마을은 금정산 해발 400m의 분지에 아담히 자리잡은 산성마을로 금정산 능선이 병풍처럼 둘러싸고 있는 아름다운 자연환경을 갖추고 있어 휴일이면 이곳을 찾는 등산객들의 발길이 끊이지 않는다.,051-519-4085,부산광역시 금정구 문화관광과,2025-11-18,3350000,부산광역시 금정구
부산대젊음의거리,관광지,부산광역시 금정구 장전온천천로 51,부산광역시 금정구 장전동 643-117,35.229587,129.0888177,10000.0,문화나눔터+어울마당,,,,,,2004-01-01,100,100,"청춘들의 꿈, 열정, 자유가 넘치는 부산대 젊음의 거리는 색다른 문화공연과 프리마켓 등 다양한 행사가 날마다 이어진다. 골목골목 위치한 상점에서 청춘의 열기를 느낄 수 있다.",051-519-4085,부산광역시 금정구 문화관광과,2025-11-18,3350000,부산광역시 금정구
오륜대한국순교자박물관,관광지,부산광역시 금정구 오륜대로 106-1,부산광역시 금정구 부곡동 1-4,35.24570172,129.1009016,1317.0,휴게소+화장실+전시실,,,,,,1982-09-25,100,100,한국 가톨릭 순교자들의 신념을 기억하기 위해 건립된 오륜대한국순교자박물관에는 한국 순교자들의 유물뿐만 아니라 역사적 의미가 있는 자료들도 함께 전시·보존하여 더욱 의미가 있다.,051-519-4085,부산광역시 금정구 문화관광과,2025-11-18,3350000,부산광역시 금정구
요산문학관,관광지,부산광역시 금정구 팔송로 60-6,부산광역시 금정구 남산동 662,35.27236562,129.085732,1128.0,화장실+전시실+자료실,,,,,,2006-11-01,100,100,일제강점기의 잔인했던 시절 속 궁핍한 현실을 작품에 담은 요산 김정한 선생의 문학 정신과 삶을 기리는 문학관은 요산 선생의 생가와 연접해 그의 숨결을 더욱 깊이 느낄 수 있다.,051-519-4085,부산광역시 금정구 문화관광과,2025-11-18,3350000,부산광역시 금정구
한산도 제승당,관광지,경상남도 통영시 한산면 한산일주로 70,경상남도 통영시 한산면 두억리 산39,34.79264032,128.4759648,524625.0,화장실+휴게소,,,,,,1976-01-01,1600,0,"선조26년(1593년) 이순신장군이 삼도수군통제사를 제수받고 이 곳에 진영을 설치했고, 1976년 지금의 제승당과 충무사, 한산정, 수루 등을 새로 짓고 경내를 정화하여 오늘에 이름.",055-254-4483,경상남도청,2025-02-13,5330000,경상남도 통영시
한려수도조망케이블카,관광지,경상남도 통영시 발개로 205,경상남도 통영시 도남동 349-1,34.82665041,128.4251243,34106.0,화장실+카페+음식점+휴게공간,,,,,,2008-04-18,10000,286,"통영 미륵산에 설치된 한려수도 조망 케이블카는 한국에서 유일한 2선(bi-cable) 자동순환식 곤돌라 방식으로 스위스의 최신기술에 의해 설치되었으며, 그 길이도 1975m로 국내 일반관광객용 케이블카 중에서는 가장 길다. 특히, 그렇게 긴 길이에도 불구하고 친환경적인 설계에 의해 중간지주는 1개만 설치하여, 환경보호는 물론 탑승객에게 아주 편안한 승차감을 제공한다. 또한, 8인승 곤돌라 48대가 연속적으로 탑승객을 운송함으로써 지체 없이 탑승이 가능하며, 가까운 사람끼리 오붓하게 아름다운 한려수도의 경치를 감상할 수 있다.",055-649-3804,경상남도 통영시 통영관광개발공사,2025-02-13,5330000,경상남도 통영시
영도관광안내센터,관광지,부산광역시 영도구 봉래나루로 79,부산광역시 영도구 봉래동1가 1,35.09454127,129.0387847,305.18,화장실+주차장,,,,,,2016-09-02,300,2,부산의 새로운 관광명소로 각광받고있는 영도대교의 도개모습을 감상하고 영도관광에 필요한 종합서비스를 제공받을 수 있다.,051-419-4048,부산광역시 영도구청 문화관광과,2025-02-04,3280000,부산광역시 영도구
용호 Sea-Side 관광지,관광지,,부산광역시 남구 용호동 산205,35.1004511779,129.1185343066,143626.0,주차장+화장실 등 예정,,,,,,2006-05-24,0,0,현재 관광지 조성계획 승인 단계,051-607-5612,부산광역시 남구청,2025-01-23,3310000,부산광역시 남구
소래역사관,관광지,인천광역시 남동구 아암대로 1605(논현동),,37.39816347,126.7375992,1234.0,화장실,,,,,,2012-06-29,100,0,소래의 역사와 문화 그리고 아름다운 옛모습을 보존하고자 2012년 6월에 개관한 남동구 최초의 공립박물관,032-453-2140,인천광역시 남동구청,2025-11-28,3530000,인천광역시 남동구
춘천호반(삼악산),관광지,강원특별자치도 춘천시 서면 경춘로 1401-25,강원특별자치도 춘천시 서면 덕두원리 118-6,37.825714,127.659368,3305373.0,도로+매표소+주차장+화장실 2동+오수처리장,,등선폭포,삼악산+전망대,,,1969-01-21,606,202,"삼악산은 시내에서 서울방면으로 약 10km 지점에 있으며 매표소에서 계곡을 따라 오르다 보면 등선폭포, 비선폭포, 승학폭포, 백련폭포등 크고 작은 5개의 폭포가 나타난다.높이가 약10m에 이르는 제1폭포에서 제3폭포까지는 난간의 계단길을 통해서 올라갈 수 있게 만들어 놓아 자연의 웅장한 신비를 바로 눈 앞에서 바라볼 수 있도록 해 놓았다.산세가 크고 웅장하지는 않지만 이 산을 형성하고 있는 용화봉과 청운봉, 등선봉의 3개 봉우리에서 뻗어 내린 능선이 암봉으로 이루어져 절경을 이룬다.삼악산에는 흥국사, 상원사등 7개의 사찰과 삼악산성이 있고 등산로를 따라 오르면 해발 654m 높이의 정상에 이르며, 정상에서는 의암호의 아름다운 경관과 춘천시가지가 한눈에 내려다보인다. 정상에서 보아 흥국사 건너편 산이 등선봉인데 이곳은 옛날 맥국때 쌓았다는 삼악산성 성곽과 대궐터가 남아 있다.",033-250-3692,강원특별자치도 춘천시청,2025-11-12,4181000,강원특별자치도 춘천시
구곡폭포,관광지,강원특별자치도 춘천시 남산면 강촌구곡길 254,강원특별자치도 춘천시 남산면 강촌리 432,37.797033,127.615852,2423000.0,관리사무소+주차장+공중화장실 2동+도로,국민여가캠핑장,구곡폭포,구곡폭포+야영장+문배마을 트레킹코스,관광식당,,1981-02-13,3800,242,"봉화산 근처 아홉구비를 돌아 떨어지는 구곡폭포와 탄성을 자아내는 하늘벽 바위 등 자연경관이 출중한 곳이며, 깔닥재를 넘으면 자연부락인 문배마을까지 볼 수 있다.",033-250-3717,강원특별자치도 춘천시청,2025-11-12,4181000,강원특별자치도 춘천시
다리안관광지,관광지,충청북도 단양군 단양읍 소백산등산길 12,충청북도 단양군 단양읍 천동리 409,36.9647819,128.4207808,153835.0,화장실+주차장,돔하우스+통나무집+캠핑장,원두막+야영장+돔하우스+캠핑장,,,,1984-11-28,2000,155,돔하우스+원두막 등을 이용할 수 있는 곳입니다,043-423-1243,단양관광공사,2025-12-02,4480000,충청북도 단양군
천동관광지,관광지,충청북도 단양군 단양읍 다리안로 520,충청북도 단양군 단양읍 천동리 201,36.97401141,128.4165952,26594.0,화장실+주차장,야영장,물놀이장+천동동굴,,,,1984-11-28,2000,80,물놀이장+캠핑장+천동동굴이 있습니다,043-423-3589,단양관광공사,2025-12-02,4480000,충청북도 단양군
온달관광지,관광지,충청북도 단양군 영춘면 온달로 23,충청북도 단양군 영춘면 하리 147,37.06295564,128.4929221,97567.0,화장실+주차장,,드라마세트장+온달동굴,온달전시관,,,1994-09-06,2000,265,온달 전시관+온달산성+온달 동굴 등 명승지를 모아놓은 곳입니다,043-423-8820,단양관광공사,2025-12-02,4480000,충청북도 단양군
장림포구,관광지,부산광역시 사하구 장림로93번길 74(장림동),부산광역시 사하구 장림동 1092,35.08037994,128.95569762,130000.0,화장실+주차장,,놀이촌,문화촌,맛술촌,해양보호구역 홍보관,2019-04-24,130000,100,배가 드나드는 강의 어귀로 조선시대 군사요충지였으며 부네치아라 불림,051-220-4501,부산광역시 사하구청,2025-12-12,3340000,부산광역시 사하구
금강공원,관광지,부산광역시 동래구 우장춘로 155 (온천동),부산광역시 동래구 온천동 291-1,35.21962513,129.075758,3093953.0,관리사무소+화장실+주차장,,,,,,1940-11-10,10000,216,"울창한 숲과 기암절벽, 골짜기 마다 흐르는 맑은 시냇물 등이 신선경에 들어선 느낌을 주며, 봄철부터 겨울철에 이르기까지 인적이 끊이지 않는 근린공원으로서 남녀노소 누구나가 즐길 수 있는 휴식처로 사랑을 받고 있다",051-860-7880,부산시설공단,2025-06-24,3300000,부산광역시 동래구
박차정의사생가,관광지,부산광역시 동래구 명륜로 98번길 129-10(칠산동),부산광역시 동래구 칠산동 319-1,35.20169645,129.090397,379.0,화장실,,,,,,2005-07-08,50,0,"박차정의사 생가 복원사업은 항일독립운동가이자 한국여성해방운동의 선구자인 박차정의사의 남편 김원봉(임시정부국무위원, 북한노동상, 국가검열상)의 사회주의적 성향으로 군사정부시절 대우를 받지 못하다가 1995년 광복 40주년에 문민정부로부터 “대한민국 건국훈장 독립장”을 추서받은 지 10년만인 2005년 7월 8일 완공하였다.",051-860-7880,동래구 문화시설사업소,2025-06-24,3300000,부산광역시 동래구
장영실과학동산,관광지,부산광역시 동래구 동래역사관길 18(복천동),부산광역시 동래구 복천동 1-2,35.20916308,129.0896688,1177.0,화장실(2동),,,,,,2009-10-15,10000,50,"동래출신 조선시대 세종당시 최고의 과학자인 장영실이 만든 세계최고의 옛 천문의기 18종 19점을 동래읍성북문광장 1,177㎡에 시비 5억을 투입하여 2009. 6. 16.부터 2009.10.15.까지 4개월에 걸쳐 사업을 완료하였다.",051-550-6604,동래구 문화시설사업소,2025-06-24,3300000,부산광역시 동래구
우장춘기념관,관광지,부산광역시 동래구 우장춘로62번길 7(온천동),부산광역시 동래구 온천동 850-48,35.213515,129.0720181,1241.0,화장실,,,,,,1999-10-21,100,2,씨 없는 수박으로 우리 모두에게 잘 알려진 세계적 육종학자인 故우장춘박사의 탄생 1백주년을 맞아 그의 생전 연구 활동 유적지,051-550-6602,동래구 문화시설사업소,2025-06-24,3300000,부산광역시 동래구
설악한화리조트,관광단지,강원특별자치도 속초시 미시령로 2983번길 111,강원특별자치도 속초시 장사동 24-1,38.21030036,128.5287214,1332578.0,주차장+배수지+변전소+도로,휴양콘도미니엄4,플라잉폭스+골프장,온천장+레이크가든,,,2010-10-08,10000,2000,"천연 온천수를 이용한 온천시설과 물놀이 시설을 갖춘 종합 테마파크이며, 설악 워터피아 등 다양한 부대시설은 완비하고 있다.",033-639-2544,강원특별자치도 속초시청,2025-06-25,4231000,강원특별자치도 속초시
척산온천,관광지,강원특별자치도 속초시 관광로 327,강원특별자치도 속초시 노학동 972-1,38.19020313,128.5407019,154743.0,도로+주차장,호텔+아쿠아훼미리호텔+온천호텔+채플+pool빌라,,설악예방의학센터+월드스파+푸드코드+키즈캠프+레스토랑/카페동,,,2009-05-20,1100,350,"1971년 설립된 온천장으로 지하 4,000km 심도에서 발생한 온천수를 이용하며 설악산과 근접한 위치에 자리잡고 있다.",033-639-2544,강원특별자치도 속초시청,2025-06-25,4231000,강원특별자치도 속초시
속초해수욕장,관광지,강원특별자치도 속초시 해오름로 186,강원특별자치도 속초시 조양동 1464-7,38.19014884,128.6035305,231748.3,관리사무소+샤워탈의장+공중화장실+도로+주차장,리조트단지(호텔/콘도),해수풀장,해양관+휴게소+전망대+테마거리+조경휴양공간+다목적잔디광장,,,1984-07-06,50000,550,"해안선 길이 약2km, 백사장 길이 약 500m이며 수심이 얕아 가족단위 관광객이 선호하는 속초시 대표 관광지이다.",033-639-2544,강원특별자치도 속초시청,2025-06-25,4231000,강원특별자치도 속초시
달맞이동산지구,관광지,부산광역시 해운대구 달맞이길 190,부산광역시 해운대구 중동 산 42-25,35.15768146,129.1825429,85.845,공중화장실 2동+관리사무소 1동+광장+도로+주차장,,,망월정 1동,,,1988-07-19,700000,76,"벚나무와 송림이 울창하게 들어찬 오솔길로 드라이브 코스로 유명하다. 달맞이 고개 일대에서는 다양한 예술작품을 만날 수 있고, 특히 보름날 달빛에 어우러진 바다 정취는 데이트 코스로 유명하다.",051-749-4081,부산광역시 해운대구청,2025-01-01,3330000,부산광역시 해운대구
해운대해수욕장,관광지,부산광역시 해운대구 해운대해변로 264,부산광역시 해운대구 우동 620-3,35.15910698,129.1602838,115.944,도로+광장+공중화장실 4동+주차장 1개소+관리사무소 1동+변전실 1동,,,해저  테마수족관,,,1988-07-19,800000,203,6월부터 9월까지 해수욕장을 개장하여 해수욕을 즐길 수 있다. 수심이 얕고 조수의 변화가 심하지 않아 해마다 천만 명이 넘는 피서색이 찾는다. 또한 매년 해수욕장 개장에 맞춰 다양한 행사와 축제가 개최된다,051-749-4081,부산광역시 해운대구청,2025-01-01,3330000,부산광역시 해운대구
한국이슬람부산성원,관광지,부산광역시 금정구 금단로 113-13,부산광역시 금정구 남산동 30-1,35.25998626,129.0922564,2022.0,화장실,,,,,,1980-09-30,100,100,"부산의 유일한 한국이슬람 부산성원은 이슬람 신자들에게는 네트워킹 장이자 쉼터로, 지역민들에게는 이슬람 문화를 체험하고 강연을 접할 수 있는 장소로 자리 잡고 있다.",051-519-4085,부산광역시 금정구 문화관광과,2025-11-18,3350000,부산광역시 금정구
스포원파크,관광지,부산광역시 금정구 체육공원로399번길 324,부산광역시 금정구 두구동 1641,35.28912108,129.1070434,30000.0,주차장+화장실,,,,,,2014-01-01,100,100,스포원파크는 기존의 경기장과는 달리 ‘공원’과 ‘개방’의 개념을 도입한 ‘공원형 경기장’으로서 쾌적한 환경여건을 가지고 있어 건강과 휴식을 위한 명소로 사랑받고 있다.,051-519-4085,부산광역시 금정구 문화관광과,2025-11-18,3350000,부산광역시 금정구
서동미로시장,관광지,부산광역시 금정구 서동로141번길 16,부산광역시 금정구 서동 341-10,35.21586987,129.102466,20000.0,서동예술창작공간+쉼터+작은도서관+하늘정원,,,,,,2014-01-01,100,20,서동미로시장은 아름다운 길(美路)이라는 의미이자 골목마다 형성된 상권이 미로같다 하여 이름 붙은 문화관광형 시장이다.,051-519-4085,부산광역시 금정구 문화관광과,2025-11-18,3350000,부산광역시 금정구
회동수원지,관광지,부산광역시 금정구 오륜대로258,부산광역시 금정구 오륜동 353-2,35.24707332,129.115753,2017.0,정자+수변데크,,,,,,2010-01-01,100,20,"조선시대부터 아름다운 풍경으로 유명한 회동수원지는 금정구를 대표하는 도심 속 힐링 명소이다. 땅뫼산 황토숲길, 편백나무숲, 오륜대 전망대는 일상 속 휴식처가 되어 준다.",051-519-4085,부산광역시 금정구 문화관광과,2025-11-18,3350000,부산광역시 금정구
범어사,관광지,부산광역시 금정구 범어사로 250,부산광역시 금정구 청룡동 546,35.28304308,129.0676212,3513.0,화장실+주차장+명상공간+체육시설,,,,,,1966-01-01,100,100,범어사는 역사적으로 많은 고승대덕을 길러내고 선승을 배출한 수행사찰로 오랜 전통과 많은 문화재가 보존되어 있는 한국 불교계의 중심지 중 하나이다.,051-519-4085,부산광역시 금정구 문화관광과,2025-11-18,3350000,부산광역시 금정구
서포리관광지,관광단지,인천광역시 옹진군 덕적면 덕적남로606번길 3,인천광역시 옹진군 덕적면 서포리 229-23,37.2232919,126.1169337,228769.0,관리사무소+오수처리장+샤워장+도로+주차장+화장실,펜션,,오토캠핑장,,,1977-03-31,100,20,"100년이 넘는 노송이 울창한 숲을 이루고 있고 완만한 경사와 넓이 300m 길이 3km의 넓은 백사장은 매년 10만 명이 넘는 관광객들의 휴식처가 되고 있는 곳이다. 200여 년은 족히 됐다는 소나무 8백여 본이 심어져 있는 소나무 숲은 단체야영에 제격이다. 거기에 넓은 운동장, 바닷가 놀이터, 테니스장, 음식점, 노래방, 자전거 대여소도 있으니 웬만한 레저시설은 다 준비되어 있는 셈이다. 주변의 갯바위에서는 우럭과 놀래미가 잘 잡혀 바다 낚시를 즐기는 관광객들의 발길이 끊이지 않고 있다.",032-899-2254,인천광역시 옹진군청,2025-07-03,3580000,인천광역시 옹진군
달음산자연휴양림,관광지,부산광역시 기장군 일광읍 화용길 299-106,부산광역시 기장군 용천리 산252,35.291977,129.213303,30000.0,화장실+주차장,관광숙박시설,산책로+운동시설,숲 체험공간,안내센터,,2013-01-24,150,50,"달음산 서쪽 자락에 위치하고 있으며, 부산시 최초의 국립 자연휴양림으로 산과 바다를 모두 즐길 수 있는 최적의 휴양림이다. 휴양림에서는 숙박은 물론, 숲 해설 프로그램과 목공예 체험 활동이 가능하다",051-722-3023,산림청,2025-06-17,3400000,부산광역시 기장군
박태준기념관,관광지,부산광역시 기장군 장안읍 임랑해안길 1,부산광역시 기장군 장안읍 임랑리 120-3,35.316877,129.261226,951.31,화장실 +주차장+도서관,,산책로,도서관+기념관 전시실,안내데스크,,2021-12-14,500,9,대한민국 근현대사에 큰 족적을 남긴 청암 박태준의 업적을 기리고 그의 철학과 사상을 엿볼수있다 2021년 대한민국 공간문화대상을 수상하며 지역의 아름다운 공간으로 인정받았으며 수준높은 문화 콘텐츠를 제공하는 문화예술의 장으로도 사랑받고 있다,051-709-4089,부산광역시 기장군청,2025-06-17,3400000,부산광역시 기장군
죽성드림세트장,관광지,,부산광역시 기장군 기장읍 죽성리 134-7,35.24113258,129.2479302,207.48,화장실(2동) +주차장,,산책로+포토존,관광홍보전시관,안내데스크,,2017-03-09,500,20,죽성리 바닷가에 세워진 드라마 세트장이다. 드림세트장은 유럽의 건축물을 옮겨놓은 듯한 이국적 분위기로 많은 여행객이 찾는다 세트장 근처에 고산윤선도 선생이 귀양살이를 하면서 가끔 찾아 시를 읊펴다는 황학대가 있으며 300년 이상된 죽성리 해송이 있다 죽성 드림세트장 에오면 죽성리 바다를 한눈에 조망할수있다,051-709-4081,부산광역시 기장군청,2025-06-17,3400000,부산광역시 기장군
장태산휴양림,관광지,대전광역시 서구 장안로 461,대전광역시 서구 장안동 259,36.21596913,127.3412778,815855.0,Y,N,Y,Y,N,Y,2019-01-01,2000,472,Y,042-270-7883,Y,2021-10-27,6300000,대전광역시
대청호반,관광지,대전광역시 대덕구 대청로 607,대전광역시 대덕구 미호동 57,36.47362538,127.4735679,72800.0,Y,N,Y,Y,N,Y,2019-01-01,3000,0,Y,042-930-7240,Y,2021-10-27,6300000,대전광역시
계족산황톳길,관광지,대전광역시 대덕구 장동로 59,대전광역시 대덕구 와동 2-1,36.40406651,127.4297932,54000.0,Y,N,Y,Y,N,Y,2019-01-01,3000,25,Y,042-623-9909,Y,2021-10-27,6300000,대전광역시
한밭수목원,관광지,대전광역시 서구 둔산대로 169,대전광역시 서구 만년동 396,36.36646857,127.3880154,387000.0,Y,N,Y,Y,N,Y,2019-01-01,3000,465,Y,042-270-8464,Y,2021-10-27,6300000,대전광역시
엑스포과학공원,관광지,대전광역시 유성구 대덕대로 480,대전광역시 유성구 도룡동 3-1,36.37662561,127.3871992,130000.0,Y,N,Y,Y,N,Y,2019-01-01,2000,200,Y,042-250-1111,Y,2021-10-27,6300000,대전광역시
뿌리공원,관광지,대전광역시 중구 뿌리공원로 79,대전광역시 중구 침산동 364,36.28537962,127.3883000376,125000.0,Y,N,Y,Y,N,Y,2019-01-01,3000,447,Y,042-228-8310,Y,2021-10-27,6300000,대전광역시
오월드,관광지,대전광역시 중구 사정공원로 70,대전광역시 중구 사정동 142,36.28749807,127.3985061,783000.0,Y,N,Y,Y,N,Y,2019-01-01,3000,1913,Y,042-580-4820,Y,2021-10-27,6300000,대전광역시
화원관광지,관광지,대구광역시 달성군 화원읍 사문진로1길40-14,대구광역시 달성군 화원읍 성산리 310,35.8127712325,128.4806365248,207720.0,관리사무소+화장실+주차장,,,관광유람선+동물원+체험관,,,2019-05-01,5000,146,도심 속 자연을 느끼고 낙동강변 경관을 감상할 수 있는 관광지,053-668-8294,대구광역시 달성군청,2025-06-23,3480000,대구광역시 달성군
비슬산관광지,관광지,대구광역시 달성군 유가읍 휴양림길 236,대구광역시 달성군 유가읍 용리 15,35.6933423054,128.5058006463,253587.0,관리사무소+화장실+주차장,,,산림휴양시설,,,2019-03-20,3000,598,비슬산 참꽃 군락지와 대견사 및 암괴류 등 자연과 함께 휴양 가능한 힐링공간 제공,053-668-8292,대구광역시 달성군청,2025-06-23,3480000,대구광역시 달성군
서창한옥문화관,관광지,광주광역시 서구 눌재로 420,광주광역시 서구 세하동 559-1,35.11523537,126.8300424,1054.2,화장실+주차장+전기시설+통신시설+상하수도 시설,,,,,,1999-10-02,26,14,"서창한옥문화관은 방문객들에게 전통문화의 우수성과 아름다움을 안내하는 역할을 하면서 동시에 우리나라의 전통가옥인 한옥에 대한 의미를 알리는 곳으로 연중 전통문화강좌, 민속놀이, 예절학당, 한옥스테이 등 다채로운 프로그램을 운영하고 있다. 인근의 관광지로는 서구8경 중 3경인 만귀정, 용두동지석묘, 들녘낙조가 있어 한옥의 운치와 볼거리를 더한다",062-373-1365,서창한옥문화관,2025-06-18,3600000,광주광역시 서구
해양자연사박물관,관광지,부산광역시 동래구 우장춘로 175 (온천동),부산광역시 동래구 온천동 산 13-1,35.2219498,129.075647,21538.0,안내소+화장실,,,,,,1994-06-10,1000,0,"1994년 6월 10일 동래구 온천동 금강공원 내에 개관한 부산해양자연사박물관은 전국 최초, 최대규모의 해양자연사분야의 전문박물관으로",051-593-4944,부산해양자연사박물관,2025-06-24,3300000,부산광역시 동래구
충렬사,관광지,부산광역시 동래구 충렬대로 345,부산광역시 동래구 안락동 421-33,35.199577,129.0959922,95804.0,안내소+화장실(1동)+주차장,,,,,,1972-06-26,10000,10,충렬사는 임진왜란 때 순절한 동래부사 송상현 공을 모시기 위해 1605년(선조 38년) 당시의 동래부사 윤훤(尹暄)이 동래읍성 남문 근처의 농주산에 송공의 위패를 모신 송공사(宋公祠)를 지어 매년 제사를 지낸 것이 그 시초이다. 그 후 1624년(인조 2년) 선위사(宣慰使) 이민구의 청으로 충렬사라는 사액(賜額)이 내려짐에 따라 송공사는 충렬사로 이름이 바뀌었다.,051-523-4223,충렬사관리사무소,2025-06-24,3300000,부산광역시 동래구
복천박물관,관광지,부산광역시 동래구 복천로 63(복천동),부산광역시 동래구 복천동 16-5,35.20877662,129.0911741,4000.0,안내데스크+화장실+주차장,,,,,,1996-07-26,1000,30,"삼한시대부터 삼국시대까지 부산의 역사를 보여주는 고고전문박물관으로서, 현재 7차에 걸친 발굴조사로 밝혀진 169기의 유구와 각종 토기 및 철기류 등의 유물을 종합 전시하고있다",051-550-0311,복천박물관,2025-06-24,3300000,부산광역시 동래구
허심청,관광지,부산광역시 동래구 온천장로107번길 32 (온천동),부산광역시 동래구 온천동 137,35.221157,129.0826889,4300.0,안내데스크+화장실+주차장,,,,,,1991-10-01,3000,200,허심청은 종래의 위락 시설과는 달리 편안하고 즐거운 온천욕과 휴식 및 체력단련을 통한 건강증진을 추구하는 새로운 유형의 도시형 온천건강랜드이다,051-550-2200,호텔농심,2025-06-24,3300000,부산광역시 동래구
동춘당,관광지,대전광역시 대덕구 동춘당로 80,대전광역시 대덕구 송촌동 192,36.36537889,127.4412933,4492.0,Y,N,Y,Y,N,Y,2019-01-01,100,30,Y,042-607-6575,N,2021-10-27,6300000,대전광역시
대전둘레산길,관광단지,대전광역시 중구 보문산공원로 440,대전광역시 중구 대사동 195-2,36.30879672,127.4231236,159000.0,Y,N,Y,Y,N,Y,2019-01-01,10000,0,Y,042-270-5583,N,2021-10-27,6300000,대전광역시
금정산,관광지,부산광역시 금정구 범어사로 250,부산광역시 금정구 청룡동 546,35.28304264,129.0676208,18845.0,케이블카+범어사 주차장,,,,,,1994-01-01,100,100,금정산은‘산마루에 우물이 있어 한 마리 금빛 나는 물고기가 오색구름을 타고 하늘에서 내려 와 우물 속에 놀았다’는 이야기에서 유래하여 이름 붙은 부산의 진산이다.,051-519-4085,부산광역시 금정구 문화관광과,2025-11-18,3350000,부산광역시 금정구
송도용궁구름다리,관광지,부산광역시 서구 암남공원로 179-20,부산광역시 서구 암남동 620-53,35.0619212,129.021965,254.0,화장실,,,,매표소,,2020-06-05,200,0,"송도해수욕장의 동쪽 송림공원에서 거북섬을 연결했던 추억의 명물 송도구름다리가 2002년 태풍 셀마 때 파손돼 철거된 지 18년 만에 ‘송도용궁구름다리’로 재탄생하였습니다. 암남공원에서 바다건너 작은 무인도인 동섬 상부를 연결하는 길이 127m, 폭 2m의 송도용궁구름다리는 바다 위를 걷는 짜릿함과 시원스럽게 펼쳐지는 바다 풍광, 기암절벽이 빚어내는 천혜의 경관을 감상할 수 있으며, 야간경관조명이 설치돼 밤에는 바다에 떠있는 신기루와 같은 환상적인 분위기를 연출해 관광도시 부산 서구의 새로운 랜드마크로 자리매김 하고 있습니다.",051-240-4084,부산광역시 서구청,2025-11-19,3260000,부산광역시 서구
송도오션파크,관광지,부산광역시 서구 송도해변로 36,부산광역시 서구 암남동 135-23,35.0727183,129.0174477,19222.5,화장실+주차장,,운동시설+해안산책로+광장,,관리실,,2017-04-17,100,88,"「송도지구 복합해양휴양지 조성사업」일환으로 2017년에 완공된 「송도오션파크」는 관광객 및 주민들의 열린 공간인 축제의 광장과 힐링의 광장, 운동시설이 설치되어 있는 젊음의 광장이 조성되어 있다.",051-240-4082,부산광역시 서구청,2025-11-19,3260000,부산광역시 서구
임시수도기념관,관광지,부산광역시 서구 임시수도기념로 45,부산광역시 서구 부민동3가 22,35.10374876,129.0175954,4774.2,화장실,,,전시실 등,관리실,,1984-06-25,40,18,"6.25 당시 임시수도로서 국난극복의 역사적 현장을 길이 보전하여,후세에 물려줌으로서 민족사의 암울한 시기를 깨닫게 하고 조국통일과 번영의 산교육장으로 활용하고 있다.",051-244-6345,부산광역시 서구청,2025-11-19,3260000,부산광역시 서구
구덕운동장,관광지,부산광역시 서구 망양로 57,부산광역시 서구 서대신동3가 211-1,35.11659638,129.0145297,71432.0,화장실,,주경기장+야구장+체육관 등,,관리사무소,,1928-09-01,100,182,1920년 9월 조그만 동물원을 곁에 둔 넓은 빈터로 마을 체육대회 장소로 사용하다가 1928년 9월에 부산공설운동장으로 건립되었다가 1982년 사직운동장이 건립되어 그해 6월에 구덕운동장으로 개칭되었다.,051-602-2211,부산광역시 체육시설관리사업소,2025-11-19,3260000,부산광역시 서구
천마산조각공원,관광지,부산광역시 서구 천마산로 209번길 94,부산광역시 서구 남부민동 1-6,35.08903987,129.0174786,16000.0,화장실,,소운동장 및 각종 체육시설,산책로+전망대+쉼터+조각작품 등,관리실,,2004-03-01,100,0,"남항에서 서쪽으로 바라보이는 해발 324m의 아담한 산에 조성된 1만 6천㎡에 이르는 공원이다. 하늘에서 말이 내려왔다는 전설의 천마 바위와 44점의 아름다운 조각 예술 작품이 운해의 바다 속에서 그 평화로움을 선보인다. 공원 주변에는체육시설과 산책로, 쉼터 등이 조성되어 문화공간으로 각광받고 있다.",051-240-3521,부산광역시 서구청,2025-11-19,3260000,부산광역시 서구
부산공동어시장,관광지,부산광역시 서구 충무대로 202,부산광역시 서구 남부민동 691-3,35.08990091,129.0263675,65287.0,화장실,,,,사무실,,1963-11-01,500,482,부산 공동어시장은 5개의 수산업협동조합이 공동으로 운영하고 있다. 1일 최대 3200톤(16만 상자) 규모의 우리나라 제일의 산지 어시장으로 새벽부터 경매사와 수산물 중도매인들의 열기가 뜨거운 곳이다.,051-254-8961,부산광역시 수산업협동조합,2025-11-19,3260000,부산광역시 서구
대신공원,관광지,부산광역시 서구 대신공원로 37-18,부산광역시 서구 서대신동 3가 산2-3,35.121591,129.0161785,2283033.0,화장실,,운동시설+궁도장 등,저수지+약수터+산책로+시비+조각품+민속석조물 등,관리사무소,,1968-02-21,100,110,"1968년 2월 21일 대신공원이란 이름으로 일반인이 즐기는 중앙 근린공원 으로 지정되었다. (건설부고시 제360호) 1900년 구덕산과 엄광산의 계곡에 2곳의 수원지를 축조하면서 삼나무, 편백, 벚꽃나무 등의 수목을 심고 주위를 정비한 후 수원지의 수원보호를 위해 일반인의 출입을 금지하였다. 1944년에는 수원지 일대를 자연공원 으로 고시하였는데 역시 일반인의 출입을 통제하였다.",051-860-7800,부산시설공단 중앙공원사업소,2025-11-19,3260000,부산광역시 서구
구덕문화공원,관광지,부산광역시 서구 꽃마을로 163번길 73,부산광역시 서구 서대신동3가 산18-15,35.12641369,129.005742,20000.0,화장실,,,교육역사관+민속생활관+목석원예관+인공폭포+편백숲 명상의 길+다목적관,,,2004-11-05,100,16,"구덕산 자락 숲속에 자리하였으며 교육역사관에는 조선시대부터 개화기, 일제강점기, 한국전쟁기, 그리고 현재에 이르기까지 약 640여점의 교육 사료가 전시되어있으며 최근 다목적관에 어린이복합문화공간인 서구 숲속놀이터가 조성되었다.",051-240-3521,부산광역시 서구청,2025-11-19,3260000,부산광역시 서구
암남공원,관광지,부산광역시 서구 암남공원로 185,부산광역시 서구 암남동 산193,35.0616574,129.0149368,553277.0,화장실,,낚시터+레포츠 시설 등,음수대+조각작품 등,관리사무소,,2004-04-01,100,341,"암남공원(岩南公園)은 부산시 서구 진정산 일대에 조성된 자연생태공원이다. 이곳에는 약 1억 년 전 형성된 퇴적암, 100여 종의 야생화와 370여 종의 식물 등 도심에서 보기 드문 자연생태가 군락을 이루고 있다. 산책로 1.9km, 해안 산책로 1.2km를 포함한 총 면적이 55만 3277㎡로 아름다운 해안 경치와 울창한 산림이 조화를 이룬 천혜의 자연 경관을 자랑한다.",051-240-4538,부산광역시 서구청,2025-11-19,3260000,부산광역시 서구
송도해수욕장,관광지,부산광역시 서구 송도해변로 100,부산광역시 서구 암남동 135-5,35.07682117,129.0180502,199392.0,화장실,,송도구름산책로+해상다이빙대+해양레포츠센터+바닥분수대 등,탈의실+샤워장+분수대+파고라+테마거리 등,임해행정봉사실,,1913-07-01,10000,1047,"우리나라 제1호 해수욕장. 동양의 나폴리로 불리며 60,80년대 송도의 추억으로 잘 알려진 송도해수욕장이 아름다운 해안선을 자랑하며 사계절 즐길 수 있는 해변공원으로 새롭게 태어났다.",051-240-4126,부산광역시 서구청,2025-11-19,3260000,부산광역시 서구
송도해상케이블카,관광지,부산광역시 서구 송도해변로 171,부산광역시 서구 암남동 124-1,35.07664334,129.0233986,11369.0,화장실+주차장,,케이블카 캐빈 39기,레스토랑+전망대 등,송도해상케이블카 안내데스크(상부+하부 2곳),,2017-06-20,1000,892,"부산 송도해수욕장 동쪽 송림공원에서 서쪽 암남공원까지 1.62㎞ 구간을 바닥이 투명한 크리스탈 캐빈을 포함한 8인승 캐빈 39기가 운행합니다. 특히 최대 86m 높이에서 바다 위를 가로질러 운행함으로서 탑승객들은 바다 한가운데에서 짜릿함을 느끼는 것은 물론 암남공원, 남항, 영도에 이르기까지 사방으로 펼쳐진 빼어난 풍광을 즐길 수 있습니다.",051-240-4701,부산광역시 서구청,2025-11-19,3260000,부산광역시 서구
마니산 국민관광지,관광지,인천광역시 강화군 화도면 마니산로675번길 18,인천광역시 강화군 화도면 상방리 402-2,37.63245827,126.4237957,486000.0,관리사무소(2동)+분리수거장(2동)+창고(2동)+석교(7동)+목교(3동)+담수보(6동)+배수지(2동)+화장실(12동)+주차장(11개소)+매표소+정수장+물탱크(5동)+정화시설+샤워실,,,야외공연장+단군놀이터+야외취사장(7동)+전망대,,,1977-03-21,147272,1293,백두산과 한라산의 중간지점에 위치하여 우리나라에서 기가 가장 센 곳이며 정상에 있는 참성단에서 매해 제례를 올리고 칠선녀가 전국 체육대회의 성화를 채화함,032-930-7068,인천광역시 강화군 시설관리공단,2025-11-20,3570000,인천광역시 강화군
유치환의 우체통,관광지,부산광역시 동구 망양로580번길 2,부산광역시 동구 초량동 827-44,35.12209588,129.0338423,133.93,화장실,,,,,,2013-03-08,10,0,청마유치환선생을 기리기 위해 지어진곳 3층에 그리움이있는 느린우체통이 명소이다,051-440-4714,부산광역시 동구청 문화관광과,2025-06-30,3270000,부산광역시 동구
김민부전망대,관광지,부산광역시 동구 영초윗길26번길 14,부산광역시 동구 초량동 994-520,35.1176995,129.0353474,28.8,전기시설,,,,,,2016-04-20,0,0,부산 동구출신의 김민부 시인을 기리기위해 만들어진 전망대이다. 현재는 청년 창업공간으로 사용하고 있다.,051-440-4712,부산광역시 동구청 문화관광과,2025-06-30,3270000,부산광역시 동구
168계단 부대시설,관광지,부산광역시 동구 영초윗길26번길 14,부산광역시 동구 초량동 994-520,35.1176995,129.0353474,179.6,화장실,,,,,,2016-04-20,0,0,"168계단 모노레일 승강장 주변에 위치하며, 현재는 청년 창업공간으로 사용하고 있다.",051-440-4712,부산광역시 동구청 문화관광과,2025-06-30,3270000,부산광역시 동구
이바구충전소,관광지,부산광역시 동구 영초윗길 25,부산광역시 동구 초량동 974-4,35.11735028,129.034686,76.92,화장실,,,,,,2020-01-01,5,0,초량168계단이 보이고 경사형엘리베이터 종점부에 위치하고 현재는 청년 창업공간으로 사용하고 있다.,051-440-4712,부산광역시 동구청 문화관광과,2025-06-30,3270000,부산광역시 동구
장기려더나눔센터,관광지,부산광역시 동구 영초윗길 48,부산광역시 동구 초량동 856-31,35.11853593,129.0326526,394.92,화장실+주차장,,,,,,2013-04-01,15,2,장기려박사의 뜻을 기리는 기념관이다,051-440-4715,부산광역시 동구청 문화관광과,2025-06-30,3270000,부산광역시 동구
이바구공작소,관광지,부산광역시 동구 망양로486번길 14-13,부산광역시 동구 초량동 875-2,35.11709939,129.0338233,264.51,화장실+주차장,,,,,,2013-02-21,15,2,산복도로 사람들의 삶과 지역문화를 전시하는 아카이브센터이다,051-440-4715,부산광역시 동구청 문화관광과,2025-06-30,3270000,부산광역시 동구
유성온천,관광지,대전광역시 유성구 계룡로60,대전광역시 유성구 봉명동 574,36.3547298,127.3375865,273970.0,Y,N,Y,Y,N,Y,2019-01-01,3000,0,Y,042-611-2114,N,2021-10-27,6300000,대전광역시
으능정이문화의거리,관광지,대전광역시 중구 중앙로 170,대전광역시 중구 은행동 45-10,36.32934665,127.428337,630.8,Y,N,Y,Y,N,Y,2019-01-01,5000,355,Y,042-252-7100,N,2021-10-27,6300000,대전광역시
대전문화예술단지,관광단지,대전광역시 서구 둔산대로 169,대전광역시 서구 만년동 396,36.366496,127.3880154,33150.0,Y,N,Y,Y,N,Y,2019-01-01,3000,751,Y,042-270-8333,N,2021-10-27,6300000,대전광역시
망양로산복도로전시관,관광지,부산광역시 동구 망양로 488,부산광역시 동구 초량동 865-148,35.117653,129.033231,852.8,화장실+주차장,,,,,,2025-06-01,20,7,산복도로의 근현대사 생활사를 전시하고 및 문화주택 만들기 등 각종 체험프로그램을 운영하는 시설이다.,051-440-4715,부산광역시 동구청 문화관광과,2025-06-30,3270000,부산광역시 동구
168 더데크,관광지,부산광역시 동구 초량동 994-892,부산광역시 동구 초량동 994-892,35.117273,129.036088,214.0,화장실,,,,,,2024-05-10,50,0,대형스크린 및 헤드셋을 활용한 야외 영화 상영관이다.,051-440-4714,부산광역시 동구청 문화관광과,2025-06-30,3270000,부산광역시 동구
명란브랜드연구소,관광지,부산광역시 동구 영초윗길 22-1,부산광역시 동구 초량동 994-351,35.117117,129.035016,464.05,화장실,,,,,,2021-11-26,15,0,명란을 토대로 한 지역특화 미식관광 브랜딩 추진의 일환으로 지어진 공간이다.,051-440-4712,부산광역시 동구청 문화관광과,2025-06-30,3270000,부산광역시 동구
만화카페,관광지,부산광역시 동구 성북로 31,부산광역시 동구 좌천동 892-8,35.13675143,129.0496096,159.92,화장실+주차장,,,,,,2021-09-14,10,1,"동구 전역의 산복도로, 북항을 열기구 형태의 VR로 체험할 수 있고, 웹툰 도서 읽을 수 있다.",051-440-4715,부산광역시 동구청 문화관광과,2025-06-30,3270000,부산광역시 동구
좌천동굴,관광지,부산광역시 동구 고관로185번길 1,부산광역시 동구 좌천동 567-2,35.13325838,129.0522683,61.0,전기시설,,,,,,2016-12-15,5,0,일제강점기때 방공호이자 한국전쟁때 피난처였던 역사를 가진 좌천동의 동굴,051-440-4711,부산광역시 동구청 문화관광과,2025-06-30,3270000,부산광역시 동구
안용복기념 부산포개항문화관,관광지,부산광역시 동구 증산로 100,부산광역시 동구 좌천동 722,35.13563677,129.0529467,142.96,화장실,,,,,,2014-02-12,15,0,부산포개항의 역사를 기억하고 독도를 수호한 안용복장군의 정신을 기리기위해 만들어진 문화관이다,051-440-4711,부산광역시 동구청 문화관광과,2025-06-30,3270000,부산광역시 동구
만화체험관,관광지,부산광역시 동구 성북로 42-1,부산광역시 동구 범일동 1405-1,35.13778041,129.0497944,142.08,화장실+주차장,,,,,,2017-05-11,10,2,관광객의 볼거리와 재래시장 활성화를 위해 조성된 웹툰거리 내에 위치한 체험관,051-440-4715,부산광역시 동구청 문화관광과,2025-06-30,3270000,부산광역시 동구
소흥관(한중우호센터),관광지,부산광역시 동구 초량중로 36,부산광역시 동구 초량동 546,35.11507608,129.0375502,254.02,화장실,,,,,,2019-08-27,10,0,소흥시와 동구의 우호계약을 맺은 기념으로 만들어진곳으로 한복과 치파오체험을 할수있다,051-440-4711,부산광역시 동구청 문화관광과,2025-06-30,3270000,부산광역시 동구
무양서원,관광지,광주광역시 광산구 산월로21번길 26,광주광역시 광산구 월계동 535-2,35.21001305,126.8400956,3167.0,화장실(1)+주차장,,,,,,1987-12-31,30,6,고려 인종 때 어의이면서 명신인 장경공 최사전을 중심으로 그의 후손 4명을 모시고 있는 서원으로 1927년에 전국 유림의 호응을 얻어서 세운 서원이다. 서원의 이름은 광주의 옛 지명에서 따 왔다.,062-960-8255,광주광역시 광산구청,2025-02-04,3630000,광주광역시 광산구
월봉서원,관광지,광주광역시 광산구 광곡길 133,광주광역시 광산구 광산동 452,35.23583653,126.7451862,2344.0,화장실(1)+주차장,,,,,,1979-08-03,50,10,조선 전기의 문신인 기대승(1527∼1572)선생의 위패를 모시고 있는 사당으로 그 시대에 조선의 명신들을 함께 배향하였던 ‘월봉서원’의 강당이다. 기대승 선생은 성리학의 대가로서 새 학설을 제시하여 학계에 주목을 받았으며 스승인 이황 선생과 사단칠정을 주제로 8년 간 서신왕래를 한 것으로도 유명하다.,062-960-8255,광주광역시 광산구청,2025-02-04,3630000,광주광역시 광산구
감귤박물관,관광지,제주특별자치도 서귀포시 효돈순환로 441(신효동),제주특별자치도 서귀포시 신효동 1200-6,33.27159304,126.6074285,98426.0,"관리사무소+화장실(실내 3, 야외 2)+주차장",,,,,,2005-02-25,1000,90,제주감귤의 역사와 문화. 산업현장을 의미있는 관점에서 전시한 박물관으로. 감귤 관련 전시물과 다양한 감귤 품종 및 이국의 식물을 관람할 수 있음. 또한 감귤과 관련한 다양한 체험 프로그램도 준비되어 있으며. 최근 개장한 감귤카페 꿈나다에서 주변 경치를 구경하며 맛있는 감귤 음료. 디저트를 저렴한 가격에 즐길 수 있음.,064-760-6400,제주특별자치도 서귀포시청,2025-11-26,6520000,제주특별자치도 서귀포시
용머리해안,관광지,제주특별자치도 서귀포시 안덕면 사계남로216번길 24-30,제주특별자치도 서귀포시 안덕면 사계리 112-3,33.23342738,126.3136956,256000.0,관리사무소+화장실(2동)+주차장,,,,,,1986-09-01,10000,123,마치 바다속으로 들어가는 용의 머리를 닮았다 해서 용머리해안으로 불림. 수천만년 동안 층층이 쌓인 사암층 암벽이 파도에 깎여 기묘한 절벽을 이루고 있음. (천연기념물 제526호. 제주도지질공원),064-760-6300,제주특별자치도 서귀포시청,2025-11-26,6520000,제주특별자치도 서귀포시
산방산,관광지,제주특별자치도 서귀포시 안덕면 산방로 218-11,제주특별자치도 서귀포시 안덕면 사계리 184,33.23697818,126.312306,643736.0,관리사무소+화장실(1동)+주차장,,,,,,1972-03-22,3000,26,높이 395m의 거대한 종 모양의 화산체로서 설문대할망이 한라산 꼭대기를 뽑아 던져 놓았다는 전설이 있음. 해발고도 200m에 산방굴이라는 해식동굴이 있음. (명승 제77호. 천연기념물 제376호. 제주도지질공원),064-760-6300,제주특별자치도 서귀포시청,2025-11-26,6520000,제주특별자치도 서귀포시
천제연폭포,관광지,제주특별자치도 서귀포시 천제연로 132(중문동),제주특별자치도 서귀포시 중문동 2232,33.2526783,126.4183754,349000.0,관리사무소+화장실(1동)+주차장,,,,,,1972-03-23,15000,141,한라산에서 시작된 중문천이 바다로 흐르면서 형성된 폭포. 3개의 폭포로 나뉘어 지는데 주상절리 절벽에서 천제연(못)으로 떨어지는 1폭포. 천제연 물이 더 아래로 흐르면서 형성된 2. 3폭포가 있음. 옥황상제를 모시는 칠선녀가 목욕을 하다 간다는 전설이 있을만큼 빼어난 경관을 자랑함(천연기념물 제378호 천제연 난대림),064-760-6300,제주특별자치도 서귀포시청,2025-11-26,6520000,제주특별자치도 서귀포시
주상절리대,관광지,제주특별자치도 서귀포시 이어도로 36-30(중문동),제주특별자치도 서귀포시 중문동 2768-1,33.23799399,126.4260174,21764.0,관리사무소+화장실(1동)+주차장,,,,,,2005-08-01,11000,80,주상절리는 주로 현무암질 용암류에 형성되는 수직절리를 말함. 중문·대포해안 주상절리대는 높이가 30~40m. 폭이 약 1km 정도로 우리나라 최대 규모로 육모꼴의 기둥이 병풍처럼 둘러쳐져 있어 자연의 신비를 만끽할 수 있음.(천연기념물 제 443호. 제주도지질공원),064-760-6300,제주특별자치도 서귀포시청,2025-11-26,6520000,제주특별자치도 서귀포시
정방폭포,관광지,제주특별자치도 서귀포시 칠십리로214번길 37(동홍동),제주특별자치도 서귀포시 동홍동 278,33.24474912,126.5730486,295000.0,관리사무소+화장실(1동)+주차장,,,,,,1972-05-02,7000,95,높이 23m. 너비 8m. 깊이 5m에 달하는 동양 유일의 해안폭포로서 폭포수가 바다로 직접 떨어지는 경관을 관람할 수 있음(명승 제43호),064-760-6300,제주특별자치도 서귀포시청,2025-11-26,6520000,제주특별자치도 서귀포시
천지연폭포,관광지,제주특별자치도 서귀포시 남성중로 2-15(서홍동),제주특별자치도 서귀포시 서홍동 666-1,33.2447447,126.5595511,273538.0,관리사무소+화장실(3동)+주차장,,,,,,1972-03-23,15000,181,하늘과 땅이 만나는 곳의 연못이라는 뜻의 천지연은 난대식물지대로서 계곡전체가 천연보호구역으로 지정되어 있어 주변 경관이 수려함. 조명시설이 되어있어 오후 10시까지 야간 관람 가능함.(천연기념물 제163호 담팔수 자생지. 제379호 천지연 난대림. 제27호 무태장어 서식지),064-760-6300,제주특별자치도 서귀포시청,2025-11-26,6520000,제주특별자치도 서귀포시
성옥기념관,관광지,전라남도 목포시 영산로 11,전라남도 목포시 유달동 4-2,34.78698576,126.3798645,1723.0,화장실+주차장+라운지,,,,,,2004-06-01,200,10,"조선내화(주)창업자인 성옥 이훈동 선생의 미수를 기리기 위해 자녀들이 건립한 문화공간으로 선생이 수집한 근 · 현대 작품, 다양한 고미술작품과 도자기 등을 감상 할 수 있다.",061-244-2527,전라남도 목포시청,2025-06-25,4800000,전라남도 목포시
"목포근대역사관 2관 (구,동양척식주식회사)",관광지,전라남도 목포시 번화로 18,전라남도 목포시 중앙동2가 6,34.78596374,126.3814912,1448.0,화장실+주차장+여행자쉼터,,,박물관,,,2006-07-20,100,30,구 동양척식주식회사 목포지점이었던 근대역사관2관은 1920년 6월에 건립된 일제시대 건축물로 1999년 11월 20일 전라남도 기념물 제174호로 지정.동양척식주식회사 건물 복원기념으로 사진이 전시되고 있다 2층건물에는 주요 근대역사자료와 관련한 상설전시중이다.,061-270-8728,전라남도 목포시청,2025-06-25,4800000,전라남도 목포시
"목포근대역사관 1관 (구, 일본영사관)",관광지,전라남도 목포시 영산로 29번길 6,전라남도 목포시 대의동2가 1-5,34.78769578,126.3817942,6575.2,화장실,,방공호체험+XR체험존,박물관,,,2014-03-01,100,0,"목포 최초의 서구적 근대 건축물로 건립당시의 내·외관을 거의 그대로 유지하고 있으며 목포 개항 이후 1900년 12월 일본영사관으로 지어져 광복 이후 목포시청, 시립도서관, 문화원으로 사용하다가 현재는 목포 근대역사관 1관으로 운영중에 있다",061-242-0340,전라남도 목포시청,2025-06-25,4800000,전라남도 목포시
인천도시역사관,관광지,인천광역시 연수구 인천타워대로 238,인천광역시 연수구 송도동24-7,37.39281227,126.6358879,8409.0,주차장 + 화장실 + 상하수도시설 + 전기시설 + 통신시설,,,,,,2009-08-07,300,70,고대 및 근대 전시관+인천 모형관+IFEZ모형관,032-850-6000,인천광역시,2025-04-28,3520000,인천광역시 연수구
인천상륙작전기념관,관광지,인천광역시 연수구 청량로160번길 26,인천광역시 연수구 옥련동 525,37.42070925,126.6531798,1788.0,주차장 + 화장실 + 상하수도시설 + 전기시설 + 통신시설,,,,,,1984-09-15,200,50,전시관+야외전시장+야외공연장+영상실+휴게실+전망대+소공원,032-832-0915,인천광역시,2025-04-28,3520000,인천광역시 연수구
인천가스과학관,관광지,인천광역시 연수구 인천신항대로960,인천광역시 연수구 송도동 364,37.34875022,126.6077146,6096.0,주차장 + 화장실 + 상하수도시설 + 전기시설 + 통신시설,,,,,,1998-11-03,300,100,옥외조형물 5종+실내전시물 23개코너+크린타워,032-822-4492,한국가스공사,2025-04-28,3520000,인천광역시 연수구
오동도,관광지,전라남도 여수시 오동도로 222,전라남도 여수시 수정동 1-2,34.7443435,127.764121,130000.0,화장실+동백열차,,U-Bike,음악분수대,관광안내소,관리사무소,1968-01-01,0,356,동백을 비롯하여 194종의 울창한 의귀수목과 기암절벽이 자연스럽게 조화를 이룬 섬으로 한려해상국립공원에 속해있다. 동백꽃으로 유명한 여수의 대표 관광지이다.,061-659-1819,전라남도 여수시청,2024-04-01,4810000,전라남도 여수시
여수이순신대교,관광지,전라남도 여수시 묘도7길 110,전라남도 여수시 묘도동 산127-37,34.8892365327,127.7049289912,0.0,화장실,,,전망대,안내데스크,사무실,2013-02-08,0,0,"세계최고의 높이를 자랑하는 주탑높이(270m)는 63빌딩보다 높고 주탑간 거리 1,545m는 충무공 이순신 장군의 탄신해인 1545년을 기념하기 위한 것으로 웅장함과 탁 뜨인 바다 전경이 일품이다.",061-807-2020,국토교통부,2024-04-01,4810000,전라남도 여수시
예술랜드리조트,관광지,"전라남도 여수시 돌산읍 무술목길 142-1,",전라남도 여수시 돌산읍 평사리 산244,34.69510702,127.7769452,65904.0,화장실+푸드코트,리조트,인피니티풀+트릭아트뮤지엄+조각공원,,안내데스크,안내데스크,2018-07-15,0,0,"전 객실 오션뷰, AR로 체험하는 국내 최대 테마형 3D트릭아트뮤지엄, +60미터 미디어 터널과 150미터 암반터널을 통해 만나는 조각공원, 바다를 바라보는 여수 최대규모 1500평 인피니티 풀로 새로운 종합관광지로 자리잡았다.",1522-2600,(주)여수예술랜드,2024-04-01,4810000,전라남도 여수시
여수해양공원,관광지,전라남도 여수시 하멜로 96,전라남도 여수시 종화동 458-5,34.73676698,127.7484079,0.0,화장실,,,공연장+놀이터,관광안내소,관리사무소,2012-01-01,0,214,"해안선을 따라 조성된 1.5km 구간 시민공원으로 아름다운 여수 밤바다를 만끽 할 수 있는 최고의 휴식공간이다. 하멜등대, 해양케이블카, 돌산대교, 거북선대교, 장군도 등이 한눈에 보여 밤바다를 거닐 수 있는 필수 데이트 코스이며, 또한 각종 공연 및 행사가 다채롭게 열려 볼거리가 많다.",061-659-3962,전라남도 여수시청,2024-04-01,4810000,전라남도 여수시
여수세계박람회장,관광지,전라남도 여수시 박람회길 1,전라남도 여수시 덕충동 2005,34.75218956,127.7465005,598000.0,화장실,소노캄+베네치아호텔+유탑마리나리조트+신라스테이,아쿠아플라넷+빅오쇼,엑스포아트갤러리+엑스포기념관,안내소,사무실,2012-04-30,0,1909,2012년 여수세계박람회를 성공적으로 개최한 장소로 단순 공원이 아닌 관광부터 비즈니스까지 원스톱으로 즐길 수 있는 전천후 복합문화체험공단.,1577-2012,2012여수세계박람회재단,2024-04-01,4810000,전라남도 여수시
여수해상케이블카,관광지,전라남도 여수시 자산4길 39,전라남도 여수시 수정동 332-57,34.7402223,127.7529197,0.0,화장실,,판타지아트뮤지엄,공연장,매표소,사무소,2014-12-02,355,244,"여수 돌산과 자산공원을 잇는 1.5km구간의 국내 첫 해상케이블카로 바닥이 투명한 크리스탈 캐빈 15대(5인승)와 일반 캐빈 35대(8인승), 총 50대가 운행되고 있다. 아찔한 스릴감과 함께 맛보는 다도해의 전망과 여수밤바다 풍경이 한눈에 들어온다.",061-664-7301,여수해상케이블카 주식회사,2024-04-01,4810000,전라남도 여수시
향일암,관광지,전라남도 여수시 돌산읍 향일암로 60,전라남도 여수시 율림리 산 7,34.59379448,127.8029861,0.0,화장실,,,,관광안내소,매표소+종무소,2012-05-06,0,109,우리나라 4대 관음기도도량 중 하나로 전국 최고의 일출명소이다. 644년 원효대사에 의해 창건되었다고 전해진다.,061-644-0309,대한불교조계종,2024-04-01,4810000,전라남도 여수시
진남관,관광지,전라남도 여수시 동문로 11,전라남도 여수시 군자동 472,34.7413383,127.7365704,792.0,화장실,,,임란유물전시관,관광안내소,관리사무소,2001-04-17,0,102,국보 제 304호 국내 최대 단층목조건물로 조선시대 400여 년간 조선수군의 본거지로 이용되었던 역사의 현장이다. 2020년 12월까지 보수공사중이다.,061-659-5710,전라남도 여수시청,2024-04-01,4810000,전라남도 여수시
가천박물관,관광지,인천광역시 연수구 청량로102번길 40-9,인천광역시 연수구 옥련동 567-22,37.41847997,126.6576026,396.0,주차장 + 화장실 + 상하수도시설 + 전기시설 + 통신시설,,,,,,1995-10-31,100,21,인천지역 유일한 국보를 포함한 총소장품 18382점,032-833-4747,가천문화재단,2025-04-28,3520000,인천광역시 연수구
신창동 유적체험학습관,관광지,광주광역시 광산구 북문대로 396-2,광주광역시 광산구 신창동 632-4,35.1934895566,126.8504631838,2259.0,화장실(2)+직원동+주차장,,,,,,2022-10-10,100,23,초기 철기의 생활에 대한 동영상 시청 등을 포함한 그 시대 체험 박물관,062-960-3827,광주광역시 문화기반조성과,2025-02-04,3630000,광주광역시 광산구
호가정,관광지,광주광역시 광산구 동곡분토길 195,광주광역시 광산구 본덕동 1,35.08243286,126.7871342,731.0,화장실,,,,,,1990-11-15,25,2,조선시대 문신 설강 유사 선생이 지은 정자로 큰 소리로 노래 부른다라는 의미를 담고 있다고 하며 광산 8경 중 한 곳으로 선정될 만큼 풍광이 수려하고 유서깊은 곳이다.,062-960-3827,광주광역시 광산구청,2025-02-04,3630000,광주광역시 광산구
용아생가,관광지,광주광역시 광산구 소촌로46번길 24,광주광역시 광산구 소촌동 363-1,35.14942906,126.7951682,2479.0,화장실,,,,,,1986-02-07,30,0,"김영랑·정지용·정인보 등과 문학 동인으로 활동하였던, 한국 서정시 발전에 선구적 역할을 한 용아 박용철(1904∼1938) 선생의 생가이다.",062-960-3827,광주광역시 광산구청,2025-02-04,3630000,광주광역시 광산구
장도포대지,관광지,,인천광역시 남동구 논현동 111-13,37.39790186,126.7382687,2275.0,전기시설,,,,,,2000-01-01,1000,0,인천광역시 문화재자료 제19호로 조선시대인 1877년 일본이 서해안 개항지를 물색하자 고종이 어영대장 신정희로 하여금 설치하였음,032-453-2140,인천광역시 남동구청,2025-11-28,3530000,인천광역시 남동구
소래철교,관광지,인천광역시 남동구 포구로 2-9(논현동),,37.3988308,126.7403795,152.0,전기시설,,,,,,2000-01-01,10000,0,수인선 협궤열차가 다니던 철로교량으로 길이 126미터의 소래철교는 1994년 열차운행이 중단된 후 통행로로 이용,032-453-2140,인천광역시 남동구청,2025-11-28,3530000,인천광역시 남동구
소래습지생태공원,관광지,인천광역시 남동구 소래로 154번길 77(논현동),,37.40736572,126.7463366,1478000.0,화장실+주차장,,,,,,2005-01-01,10000,100,갯벌과 옛 염전지역을 다양한 생물군락지와 철새도래지로 복원시킨 생태공원,032-453-2140,인천광역시 남동구청,2025-11-28,3530000,인천광역시 남동구
소래포구,관광지,인천광역시 남동구 포구로 2-9(논현동),,37.3988308,126.7403795,20798.0,화장실,,,,,,2000-01-01,10000,0,실제 어선이 드나드는 수도권 유일의 재래포구,032-453-2140,인천광역시 남동구청,2025-11-28,3530000,인천광역시 남동구
라비에벨,관광단지,강원특별자치도 춘천시 동산면 종자리로 436,강원특별자치도 춘천시 동산면 조양리 산199,37.741217,127.7578198,4843796.0,주차장+화장실+도로+광장+전기시설+통신시설+상하수도시설+관광안내소+오수처리장,한국전통호텔+관광호텔+휴양콘도미니엄,클럽하우스+승마장+골프장+티하우스,양회공연장+트레킹코스+전망대+수목원+체험농장+컨퍼런스센터+아울렛,관광식당,,2009-09-01,1000,317,"자연 원형의 생태가 그대로 살아 숨쉬고 최고의 코스와 함께 도전과 변화, 평온과 휴식을 동시에 만끽하실 수 있습니다",033-245-7100,코오롱글로벌㈜,2025-11-12,4181000,강원특별자치도 춘천시
신영,관광단지,강원특별자치도 춘천시 동산면 종자리로 148-16,강원특별자치도 춘천시 동산면 군자리 1435,37.747692,127.7252549,1694696.0,주차장+화장실+도로+전기시설+통신시설+상하수도시설+관광안내소+오수처리장,관광호텔+휴양콘도미니엄,저류지+클럽하우스+수위실+스키하우스+전망대+슬로프,커뮤니티센터,관광식당,,2010-08-01,1000,311,"일상의 스트레스를 벗고, 위대한 자연 속에서 휴식의 옷으로 갈아입는 곳",033-269-8801,신영종합개발(주),2025-11-12,4181000,강원특별자치도 춘천시
춘천호반(하중도),관광지,강원특별자치도 춘천시 하중도길 128,강원특별자치도 춘천시 중도동 603,37.88224246,127.6963924,918.745,도로+부체도로+통합관제실+레고랜드 주차장+저류지+오수중계펌프장+배수펌프장,관광호텔+가족호텔,레고랜드,레고랜드 진입광장,관광식당,,1969-01-21,15000,4000,호반 위에 조성되어 주변 자연경관이 우수하고 수도권의 부족한 관광휴양 공간기능을 수행하는 거점 관광지이다.,033-250-3075,강원특별자치도 춘천시청,2025-11-12,4181000,강원특별자치도 춘천시
청평사(춘천),관광지,강원특별자치도 춘천시 북산면 오봉산길 810,강원특별자치도 춘천시 북산면 청평리 673,37.986071,127.808407,175000.0,도로+주차장+하수처리장+관리사무소 2동+화장실 3동+다목적광장,국민여가캠핑장,계곡+구성폭포,오봉산+소양댐+야영장+전망대,관광식당,,1987-06-15,2800,137,"청평사 관광지는 시내에서 19km 지점에 있으며 소양호 선착장에서 선박을 이용하여 10분 정도 가면 청평사 관광지에 이른다. 계곡이 수려하여 등산객들이 즐겨 찾는 곳으로 계곡을 따라 오르다 보면 7m 높이의 아홉 가지 소리를 낸다는 구성폭포가 있다. 그밖에 청평사 고려 정원 영지, 청평사 회전문, 3층 석탑 등이 있다. 이곳을 계속 오르면 오봉산 등산로와 연결된다. 청평사 관광지의 초입에는 다양한 먹거리가 있어 춘천의 토속음식들을 만나볼 수 있다.",033-250-3717,강원특별자치도 춘천시청,2025-11-12,4181000,강원특별자치도 춘천시
서산동 시화골목,관광지,전라남도 목포시 해안로 127번길 14-2,전라남도 목포시 서산동 12-89,34.78174519,126.3773176,8420.0,화장실+주차장+여행자쉼터,,,,여행자쉼터,,2016-07-28,250,40,지역의 시인과 화가 그리고 주민들이 참여하여 생활적인 시와 벽화를 구성해 놓은 곳이다.개발되지 않은 1970 ~ 80 년대 해안가 마을의 골목길을 보존해 당시의 생활적 정서를 엿볼 수 있는 대표적인 레트로 공간이다. 초입에 1987의 촬영지 연희네 슈퍼가 있어 조화를 이루고 있다,061-270-8598,전라남도 목포시청,2025-06-25,4800000,전라남도 목포시
유달산,관광지,전라남도 목포시 유달로 180,전라남도 목포시 죽교동 300,34.79142993,126.3759183,116813.0,화장실+주차장+관광안내소,,,특정자생식물원+봉후샘쉼터+옛수원지 암벽폭포+조각공원,매점,,1982-01-01,100000,2000,노령산맥의 맨 마지막 봉우리이자 다도해로 이어지는서남단의 땅 끝인 산 해발 228미터 기암괴석으로 이루어진 유달산은 노령산맥의 맨 마지막 봉우리이다. 정상에 올라 서면 목포 시내가 한눈에 내려다보이며 푸른 다도해의 경관이 시원스레 펼쳐져 있고 그 사이를 오고가는 크고 작은 선박들의 모습이 한폭의 동양화를 연상시킨다.,061-270-8359,전라남도 목포시청,2025-06-25,4800000,전라남도 목포시
구 동본원사 목포별원,관광지,전라남도 목포시 영산로 75번길 5,전라남도 목포시 무안동 2-4,34.78970032,126.3842863,340.0,주차장,,,,,,2007-07-03,150,45,동본원사는 목포에 들어선 일본 첫 불교사원으로 정식명칭은 ‘진종 대곡파 동본원사’이다. 동본원사 목포별원은 1898년 4월에 세워졌으며 목포심상고등학교 설립 인가를 받아 목포 내에서 일본인 소학교로 최초·정식 운영되기도 했다. 해방 이후 정광사의 관리를 받다가 1957년부터 목포중앙교회로 사용하게 되어 사찰이 교회가 되는 이색적인 약력을 가지게 되었다. 현재는 각종 문화행사 및 전시회 공간으로 활용되고 있다.,061-245-8832,전라남도 목포시청,2025-06-25,4800000,전라남도 목포시
롯데월드 부산,관광지,부산광역시 기장군 기장읍 동부산관광로 42,부산광역시 기장군 기장읍 시랑리 산46번지,35.19603043,129.2129711,158677.0,화장실+주차장,관광숙박시설,테마파크,테마파크,안내센터,,2022-03-31,10000,1000,"부산광역시 기장군 기장읍 시랑리 산46에 위치한 테마파크. 줄여서 부롯이라 부른다. 오시리아관광단지 테마파크존 내에 조성된 핵심시설로, 서울에 있는 롯데월드 어드벤처와 부산 롯데월드 스카이프라자, 롯데월드 언더씨킹덤에 이은 롯데월드의 4번째 테마파크이다.",1661-2000,롯데,2025-06-17,3400000,부산광역시 기장군
달성토성마을,관광지,대구광역시 서구 국채보상로 83길 21 (비산동) 일대,대구광역시 서구 비산동 404-5,35.87331563,128.5753765,45000.0,행복한 날뫼골 공방,,,채비천연염색공방+전양순자수박물관+마을도서관 햇빛따라+퍼팩토리소극장,달성토성마을 다락방,,2015-06-01,8000,26,집안에 있는 화분을 골목으로 꺼내놓으며 시작된 골목정원,053-663-2181,대구광역시 서구청,2025-02-16,3430000,대구광역시 서구
침산정,관광지,대구광역시 북구 침산남로9길 118,대구광역시 북구 침산동 1168-3,35.897221,128.5848591,291080.0,화장실+주차장+휴게시설,,,,,,2017-03-14,500,50,대구광역시 북구 8경사진찍기좋은명소,053-665-2344,대구광역시 북구청,2025-01-17,3450000,대구광역시 북구
태조산관광지,관광지,충청남도 천안시 동남구 태조산길 261,,36.82207666,127.1889559,331000.0,주차장,,,조각공원,,,1985-07-24,10000,300,유량동 태조산 아래에 자리잡힌 넓은 공원으로 천안시민들의 문화ㆍ휴식 공간,041-550-2520,천안시시설관리공단,2024-06-11,4490000,충청남도 천안시
천안종합휴양관광지,관광지,충청남도 천안시 동남구 성남면 종합휴양지로 200,,36.75731215,127.2240961,748020.0,주차장,콘도미니엄,워터파크,미술관+공연장,식당,,1996-07-02,5000,500,"중부권 최대의 온천관광지로 워터파크, 휴양콘도, 천안예술의 전당이 있음.",041-906-7000,소노벨 천안,2024-06-11,4490000,충청남도 천안시
아쿠아리움,관광지,대전광역시 중구 보문산공원로 469(대사동),대전광역시 중구 대사동 198-14,36.31005741,127.4209439,18708.0,휠체어+유모차대여소+보관소+수유실+고객지원센터,,,아쿠아리움+체험동물원,,,2016-07-01,0,300,전쟁에 대비해 지하방공호로 활용하던 대전 도심의 천연동굴을 변화시킨 수족관으로 국내최초이자 최대인 담수어 아쿠아리움  *수용인원:제한없음,042-226-2100,㈜신라애니멀그룹,2024-08-16,3650000,대전광역시 중구
뿌리공원,관광지,대전광역시 중구 뿌리공원로 79(침산동),대전광역시 중구 침산동 364,36.28538043,127.3883000376,125000.0,관광안내소+수유실,효문화마을관리원,국궁장,성씨조형물+한국족보박물관 등,,,2013-09-01,0,447,"전국유일의 효 테마공원으로서 자신의 뿌리를 되찾을 수 있는 성씨별 조형물과 수변무대, 전망대, 산림욕장 등 다양한 시설이 갖추어진 체험학습의 산 교육장  *수용인원:제한없음",042-288-8301,대전광역시 중구청,2024-08-16,3650000,대전광역시 중구
오-월드,관광지,대전광역시 중구 사정공원로 70(사정동),대전광역시 중구 사정동 142,36.28749924,127.3985039,682830.0,유모차대여소+수유실+의무실+고객지원센터+물품보관소,,버드랜드+조이랜드+플라워랜드+시즌놀이시설,행복쉼터,,,2002-05-02,0,1545,주랜드 + 플라워랜드 + 조이랜드”를 복합적으로 구성하여 온가족이 함께 즐길 수 있는 테마공원 *수용인원:제한없음,042-580-4820,대전도시공사,2024-08-16,3650000,대전광역시 중구
구암서원,관광지,대구광역시 북구 연암공원로17길 20,대구광역시 북구 산격동 산79-1,35.89881592,128.5989989,65000.0,화장실+주차장+관광안내시설+휴게시설,,,,,,2017-03-14,500,30,대구광역시 북구 8경사진찍기좋은명소,053-665-2344,대구광역시 북구청,2025-01-17,3450000,대구광역시 북구
함지공원,관광지,대구광역시 북구 동암로38길 9,대구광역시 북구 구암동 775-6,35.9424608,128.570482,44385.0,화장실+주차장+음악공원시설+물놀이시설+휴게시설,,,,,,2017-03-14,10000,100,대구광역시 북구 8경사진찍기좋은명소,053-665-2344,대구광역시 북구청,2025-01-17,3450000,대구광역시 북구
경북대학교 캠퍼스,관광지,대구광역시 북구 대학로80,대구광역시 북구 산격동 1370-1,35.88909849,128.6143217,1317639.0,화장실+주차장+휴게시설,,,,,,2017-03-14,50000,5000,대구광역시 북구 8경사진찍기좋은명소,053-665-2344,대구광역시 북구청,2025-01-17,3450000,대구광역시 북구
금호강하중도,관광지,,대구광역시 북구 노곡동 673,35.90019471,128.5595886,223000.0,화장실+주차장,,,,,,2017-03-14,50000,2000,대구광역시 북구 8경사진찍기좋은명소,053-665-2344,대구광역시 북구청,2025-01-17,3450000,대구광역시 북구
팔달대교 야경,관광지,,대구광역시 북구 팔달동 524-4,35.89629048,128.5491628,10000.0,조명시설,,,,,,2017-03-14,1000,0,대구광역시 북구 8경사진찍기좋은명소,053-665-2344,대구광역시 북구청,2025-01-17,3450000,대구광역시 북구
운암지수변공원,관광지,,대구광역시 북구 구암동 349,35.93241418,128.5674979,17962.0,화장실+데크로드+분수대+생활공원+유아숲체험원,,,,,,2017-03-14,10000,50,대구광역시 북구 8경사진찍기좋은명소,053-665-2344,대구광역시 북구청,2025-01-17,3450000,대구광역시 북구
부산영화체험박물관,관광지,부산광역시 중구 대청로126번길 12,부산광역시 중구 동광동3가 41-4,35.10169342,129.033594,0.0,화장실+공영주차장,,,,,,2017-07-03,500,0,"부산영화체험박물관은 대한민국을 대표하는 영화체험 복합문화공간입니다. 전국 최초의 영화관련 전문전시체험시설로 지상지상 4층, 지하 3층으로 구성된 본 체험박물관은 영화의 원리를 이해하고 제작의 즐거움을 체험할 수 있는 다양한 전시시설 및 영화의 과거와 미래를 연결하는 하이테크 시네마를 갖추고 있습니다.",051-715-4200,부산 영화체험 박물관,2023-12-04,3250000,부산광역시 중구
광복로,관광지,부산광역시 중구 광복중앙로 1,부산광역시 중구 창선동1가 44,35.09947039,129.0311659,0.0,화장실+공영주차장,,,,,창선동 관광안내소,1970-01-01,7000,0,"패션·쇼핑거리로 중앙에는 21세기 도약의 이미지를 상징하는 `비상 2000` 조형물이 설치되어 있다. 매년 광복로 문화축제를 개최하는 볼거리, 즐길거리가 풍성한 문화예술의 거리이다.",051-600-4084,부산광역시 중구,2023-12-04,3250000,부산광역시 중구
용두산공원,관광지,부산광역시 중구 용두산길 37-55,부산광역시 중구 광복동2가 1-2,35.1009305,129.0324434,0.0,화장실,,,,,,1944-01-08,3000,0,"부산의 역사가 살아 숨쉬고 있는 대표적 관광명소로서 부산의 상진인 120m 높이의 부산타워, 부산 시민의 종, 충무공 이순신 동상, 미술전시관 등이 조화롭게 조성되어 있다.",051-860-7820,부산 시설공단,2023-12-04,3250000,부산광역시 중구
보수동책방골목,관광지,부산광역시 중구 대청로 57-1,부산광역시 중구 보수동1가 124-15,35.10323904,129.0263248,0.0,화장실,,,보수동책방골목 문화관,,,2010-12-08,4010,0,"보수동 책방골목은 국제시장 입구 대청로 사거리 건너 보수동쪽으로 난 사선 방향의 좁은 골목길에 집결된 책방을 말한다. 8.15광복 직후 오늘날의 국제시장이 태평양전쟁으로 주택가가 철거되어 빈터로 놓여 있을 때 일본인이 남기고 간 책을 난전을 벌여 팔았는데, 그 장소가 개인소유가 되자, 보수동 앞길로 책장사들이 한 두 사람 자리를 옮겨 앉게 되면서부터 오늘의 골목이 형성되는 바탕이 되었다.",051-743-7650,부산광역시 중구,2023-12-04,3250000,부산광역시 중구
꽃보라동산,관광지,,대구광역시 북구 산격동 1500-6,35.88935018,128.601059,10000.0,화장실+벤치+벚꽃길,,,,,,2017-03-14,3000,50,대구광역시 북구 8경사진찍기좋은명소,053-665-2344,대구광역시 북구청,2025-01-17,3450000,대구광역시 북구
가위박물관,관광지,전북특별자치도 진안군 진안읍 마이산로 258,전북특별자치도 진안군 진안읍 단양리 690-4,35.76592077,127.4150023,556.99,전시실+수장고+사무실+뮤지업숍,,,가위박물관+명인명품관+홍삼스파+산약초타운+역사박물관+마이돈농촌테마공원,,,2016-12-09,200,100,"세계유일의 가위박물관, 진안가위박물관, 마이산북부에 위치하고 세계 희귀 가위 1500여점을 소장",063-430-8745,전북특별자치도 진안군,2025-01-28,4731000,전북특별자치도 진안군
삼도수군통제영,관광지,경상남도 통영시 세병로 27,경상남도 통영시 문화동 62,34.84715495,128.423489,46683.0,관광안내소+화장실,,,,,,1998-02-20,800,140,"이충무공의 숨결이 살아있는 통제영은 삼도수군통제영의 약칭으로 삼도수군통제사가 경상,전라,충청 3도의 수군을 지휘하던 본영을 말한다. 최초의 통제영은 임진왜란 당시 초대 통제사로 제수된 이순신장군의 한산 진영이였다.",055-645-3805,경상남도 통영시 통영관광개발공사,2025-02-13,5330000,경상남도 통영시
통영시립박물관,관광지,경상남도 통영시 중앙로 65,경상남도 통영시 도천동 28,34.84075153,128.4167887,4989.0,화장실+카페+음식점+휴게공간,,,전시실,세미나실+영화관람실,,2013-08-23,500,32,"통영시립박물관은 통여의 소중한 문화자산을 잘 보존, 전시하여 후대에까지 전하려고 합니다.",055-650-4515,경상남도 통영시청,2025-02-13,5330000,경상남도 통영시
장사도해상공원,관광지,경상남도 통영시 한산면 장사도길 55,경상남도 통영시 한산면 매죽리 산4-1,34.71373747,128.5588706,390131.0,화장실+카페+음식점+휴게공간,,,공원,,,2012-01-01,2500,0,바다위의 공원으로 배를 타고 입장.,055-650-0514,경상남도 통영시청,2025-02-13,5330000,경상남도 통영시
해저터널,관광지,경상남도 통영시 당동 1-3,경상남도 통영시 당동 1-3,34.83609021,128.411698,2415.0,관광안내소,,,,,,2005-09-14,200,0,동양 최초의 바다 밑 터널,055-650-0514,경상남도 통영시청,2025-02-13,5330000,경상남도 통영시
박경리기념관,관광지,경상남도 통영시 산양읍 산양중앙로 173,경상남도 통영시 산양읍 신전리 1429-9,34.802301,128.4035792,4465.0,화장실,,,,세미나실+회의실,,2010-05-05,400,23,통영이 낳은 대 소설가 박경리 선생님의 문학적 업적을 기리고 독창적이고 차별화된 문화콘텐츠를 육성하기 위해 기념관 건립함.,055-650-2541,경상남도 통영시청,2025-02-13,5330000,경상남도 통영시
고려청자박물관,관광지,전라남도 강진군 대구면 청자촌길 33,,34.50866203,126.8008374,3000.0,관리사무소+화장실,,,,,,2013-01-01,1000,100,"고려청자의 체계적인 관리와 연구를 위해1997년 고려청자박물관을 개관,운영하여청자의 연구는 물론 누구나 쉽게 청자를접하고 이해할 수 있도록 하고 있다.",061-430-3755,전라남도 강진군청,2025-11-19,4920000,전라남도 강진군
가우도,관광지,전라남도 강진군 대구면 중저길 31-27,,34.53639111,126.7910468,3000.0,낚시공원1+휴게시설1+식당2+쉼터2,밀물펜션+한옥펜션+노을민박+바닷가펜션+가우도펜션,,낚시공원1,,,2013-01-01,1000,100,곰솔나무 등 태고적 숨결이 가득한 함께해길그리고 바다를 걷는 출렁다리삶의 여유가 묻어나는 섬 가우도에서는 건강함도 함께한다,061-430-3344,전라남도 강진군청,2025-11-19,4920000,전라남도 강진군
삼학도크루즈,관광지,전라남도 목포시 삼학로 92번길 104,전라남도 목포시 산정동 1454-7,34.78101571,126.387931,15455.0,화장실+주차장+매표소+휴게실,,공연장+전망대+카페테리아+라운지,관광유람선,카페테리아,,2020-06-12,578,100,"삼학도 계류장을 출발하여 해상케이블카타워, 인어동상, 목포대교로 간다.잔잔한 목포 앞바다를 배를 타고 노니는것은 또 다른 경험이다. 오른쪽으로 높이오른 유달산과 목포대교의 일몰, 끝없이펼쳐진 다도해 그리고 고하도의 해안을감상할 수 있다.",061-245-3222,전라남도 목포시청,2025-06-25,4800000,전라남도 목포시
목포해상케이블카,관광지,전라남도 목포시 해양대학로 240,전라남도 목포시 죽교동 516-101,34.79940179,126.3700239,19079.0,화장실+주차장+매표소+관광안내소+기념품판매점+푸드코트,,VR체험관,안전홍보관,카페테리아+휴게실,,2019-09-06,2500,848,"155m의 높이에서 스릴넘치는 아찔한 체험을...국내 최장구간 3.23km의 해상케이블카로 북항에서 고하도까지 이어진다.목포항과 삼학도를 비롯한 목포 원도심이 한눈에 펼쳐지고 보석처럼 빛나는 다도해와목포대교, 고하도 등을 조망할 수 있다.",061-244-2600,전라남도 목포시청,2025-06-25,4800000,전라남도 목포시
춤추는 바다분수,관광지,전라남도 목포시 평화로 82,전라남도 목포시 상동 1157,34.79666213,126.4337909,4210.0,화장실+주차장+관광안내소,,레이저쇼+워터스크린+사연이벤트,,,,2010-07-30,4500,80,"목포춤추는바다분수는 매년 4월부터 11월까지 8개월간 목포 평화광장 앞바다에서 음악과 분수, 워터스크린, 레이저, 빔프로 젝트를 이용한 미디어 아트 작품을 선보이고 있다. 목포춤추는바다분수는 수반길이 150m, 높이 13.5m, 최대분사 높이 70m의 세계최초 초대형 부유식 바다음악분수이다.이에 더해 2021년 10월부터는 바다분수 앞에 설치한 해상무대에서 불꽃과 바다분수가 어우러진 환상적인 해상공연을 펼칠 예정이다.",061-270-8580,전라남도 목포시청,2025-06-25,4800000,전라남도 목포시
연희네슈퍼(영화 1987 촬영지),관광지,전라남도 목포시 해안로 127번길 14-2,전라남도 목포시 서산동 12-89,34.78174519,126.3773176,62.2,화장실+주차장+여행자쉼터,,의상체험+셀프시잔관+화가의집,,여행자쉼터,,2018-02-12,100,40,영화 1987의 주인공 연희가 살던 곳이곳의 시간은 1987년이다. 개발되지 않은 배경에 1987년을 그대로 옮겨놓은 연희네 슈퍼는 단순한 영화세트장이 아니다. 각자의 1987년을 떠올릴 수 있는 공간이다. 문득 시간을 돌아보고 싶거든 연희네 슈퍼로 가자. 그곳에 나의 1987년이 있고 나의 연희가 있다.,061-270-8598,전라남도 목포시청,2025-06-25,4800000,전라남도 목포시
인천도호부청사,관광지,인천광역시 미추홀구 매소홀로 589,인천광역시 미추홀구 문학동 349-2,37.4393787,126.6868134,9103.0,관리사무소+화장실+주차장,,,,,,2001-10-14,3000,50,조선시대 행정기관의 하나로 상급기관인 목(牧)과 하급기관인 군(郡) · 현(縣) 사이에서 행정을 담당했던 관청,032-422-3492,인천광역시청,2024-10-31,3510500,인천광역시 미추홀구
인천나비공원,관광지,인천광역시 부평구 평천로 26-47,인천광역시 부평구 청천동 68-12,37.52026697,126.6927245,1674.0,수유실,,,전시,카페,,2017-02-20,500,24,살아있는 나비 등 관람,032-509-8824,인천광역시 부평구청,2025-05-27,3540000,인천광역시 부평구
부평안전체험관,관광지,인천광역시 부평구 굴포로 110,인천광역시 부평구 삼산동 441-6,37.51098789,126.7333177,10240.0,화장실,,,안전교육체험,카페,,2017-02-20,100,65,재난상황 시뮬레이션 체험,032-509-3940,인천광역시 부평구청,2025-05-27,3540000,인천광역시 부평구
부평역사박물관,관광지,인천광역시 부평구 굴포로 151,인천광역시 부평구 삼산동 451-1,37.51214216,126.7379081,3108.0,화장실,,,전시,카페,,2013-03-13,100,31,부평 역사관련 전시물 관람,032-515-6471,인천광역시 부평구청,2025-05-27,3540000,인천광역시 부평구
기후변화체험관,관광지,인천광역시 부평구 장제로 267,인천광역시 부평구 갈산동 403,37.50932668,126.7307645,1279.0,수유실,,,생태교육체험,,,2017-02-20,100,4,생태교육프로그램 체험,032-509-3900,인천광역시 부평구청,2025-05-27,3540000,인천광역시 부평구
부평아트센터,관광지,인천광역시 부평구 아트센터로 166,인천광역시 부평구 십정동 186-22,37.4822383,126.7049334,17236.0,수유실+놀이방,,,공연+전시,카페+레스토랑,,2015-05-06,600,259,뮤지컬+음악회+전시회 등,032-500-2000,인천광역시 부평문화재단,2025-05-27,3540000,인천광역시 부평구
황령산관광지,관광지,부산광역시 수영구 황령산로 156 일원,부산광역시 수영구 광안동 산 60-1일원,35.155156,129.102558,174890.0,관리사무소+화장실+주차장,,,,,,1987-03-02,10000,80,"부산광역시 금련산청소년수련원 일대이며, 부산 도심 속 천혜의 황령산 자락에 위치하고 있어 부산의 랜드마크인 광안리 해수욕장, 광안대교, 해운대를 한눈에 바라볼 수 있음.",051-610-3211,금련산청소년수련원,2025-07-24,3380000,부산광역시 수영구
서낙동강카누경기장,관광지,"부산광역시 강서구 조정경기장길 120, (강동동)",,35.17013026,128.9068188,276272.0,관리사무소+화장실+주차장,,"운동장 276272㎡(부지25252㎡, 조정호 251020㎡)+경기장시설(조정8레인, 카누9레인)",,,,2002-07-31,150,20,"서낙동강 조정 카누 경기장은 강서구 강동교~남해 고속 도로 지선, 강서구 강동동 서낙동강 일대에 있다. 전국 체육 대회 등 국내 대회를 성공적으로 개최하여 조정·카누 인구의 저변 확대와 부산 체육 진흥에 크게 이바지하였다. 연중 해양 스포츠 아카데미를 개설·운영하여 조정, 카누, 래프팅 등을 배울 수 있으며, 다양한 해양 스포츠 체험을 할 수 있다. 매년 6월 중에는 강 스포츠 축제가 개최되고 있다.[네이버 지식백과] 서낙동강 조정 카누 경기장 [西洛東江漕艇-競技場] (한국향토문화전자대전)",051-970-4125,부산광역시 강서구청,2025-03-27,3360000,부산광역시 강서구
강서체육공원,관광지,"부산광역시 강서구 체육공원로 43, (대저1동)",,35.21018443,128.9723366,208985.0,관리사무소+화장실+주차장,,"실내체육관(경기장1개소, 관람석 4189석)+보조체육관(지하1층: 수영장(1개소), 지상1층: 배드민턴장(9면), 지상2층: 트레이닝센터(1), 배트민턴장(3면))+하키경기장(경기장 2면(인조잔디), 관람석 2612석)+양궁경기장(경기장 1면, 관람석 432석)+축구연습장(경기장 2면)+테니스장(인조잔디 4면)+기타시설(야외농구장, 소공원 1개소)",,,,2002-06-30,7500,527,"강서체육공원은 강서구 대저1동에 부지면적 20만㎡로 2002, 6월에 완공되었다. 2002년 부산아시아경기대회 펜싱경기와 배드민턴경기가 열린 실내체육관과 2,000석 규모의 하키경기장, 500석 규모의 보조경기장, 그리고 양궁경기장 등으로 구성되어 있다. 강서체육공원은 종목별 경기장 뿐만 아니라 시민체육, 문화센터 등 여가시설을 위한 체육가족공원으로 조성되어 있으며, 천연잔디구장 2면은 부산아이콘스 및 유소년 축구클럽 전용연습장으로 사용하고 있다. 또한 4,189석의 관람석을 갖고 있는 실내체육관에서는 펜싱과 배드민턴 등 경기가 가능하며, 야간에는 주차장 일부를 폐쇄하여 인라인스케이트장으로 활용하고 있다.",051-970-1200,강서체육공원 관리사무소,2025-03-27,3360000,부산광역시 강서구
렛츠런파크 부산경남,관광지,"부산광역시 강서구 가락대로 929, (범방동)",,35.15474347,128.8819186,1243103.0,종합안내센터+편의용품대여소+화장실+흡연실+마권사는곳+편의점,,어린이축구장+어린이놀이터+포니승마장+가족테마존+생활체육존국제승마경기장+실내승마장+승용마하우스,,,,2005-09-30,30000,4747,"전국 최대 말 테마파크로 더비랜드(사계절썰매장, 바닥분수, 렛츠런투어 등) 포니랜드(어린이승마장, 어린이놀이터, 바운싱돔) 에코랜드(테니스장, 족구장, 농구장, 축구장) 호스아일랜드(호수공원, 미니기차, 가족 자전거) 승마랜드(말 먹이주기체험, 승마체험, 힐링/재활 승마) 등 가족, 연인, 친구와 다양한 즐길거리의 시설이 갖춰져 있다. 금~일요일 경마일에 방문한다면, 공원 놀이시설 외에 관람대에서 실제 말이 뛰는 모습을 볼 수 있다. 또, 관람대 내 루키존에서는 다양한 콘텐츠(인생네컷, 농구게임, 다트, 초보경마교실 등)도 무료로 이용할 수 있다. 시즌 프로그램으로 더비랜드에서 여름을 시원하게 보낼 수 있는 워터파크도 운영되고 봄, 가을에는 문화행사와 축제도 꾸준히 운영되고 있다.",051-901-7114,렛츠런파크 부산경남공원,2025-03-27,3360000,부산광역시 강서구
명월사지흥국사,관광지,"부산광역시 강서구 허왕후길 182, (지사동)",,35.13886951,128.8341451,1018.0,안내판,,,,,,1956-01-01,200,0,"<신증동국여지승람>에 의하면 명월사(明月寺)는 명월산에 있었다고 하고, 헌종 34년(1708) 승(僧)증원(證元)이 천한 <김해명월사사적비>에 명월사 내력이 자세히 기록되어 있다.명월사는 임진왜란때 불타버렸는데, 광해군 10년(1618)에 중건하였고, 그 뒤 또 다시중수(重修)할 때 「건강원년갑신삼월남색(健康元年甲申 三月藍色)」이라고 새겨진 기와장이 무너진 담장 아래서 발견되었는데, 건강원년은 수로왕 103년(144)이 되며 서역불교(西域佛敎)가 장유화상(長遊和尙)에 의해서 일찍이 이 땅에 전래된 것을 입증한다고 한다.흥국사 경내에 있는 명월사 사적비문(史蹟碑文)을 보면, 가락국 수로왕이 높은 산길 아래서 만전(滿殿)을 베풀어 허왕후를 맞이하였으며, 익일(翼日)에 궁으로 돌아갈 때에 허왕후가 입었던 비단바지를 벗어서 산신(山神)께 바쳤다고 전해오고 있다.",051-970-4065,부산광역시 강서구청,2025-03-27,3360000,부산광역시 강서구
맥도생태공원,관광지,"부산광역시 강서구 공항로 500, (대저2동)",,35.15230906,128.9549009,2510000.0,관리사무소+화장실+주차장,,축구장(2)+야구장(1)+농구장(2)+족구장(2)+테니스장(6)+배구장(2)+배드민턴장(3)+게이트볼장(3)+인라인스케이트장(1),,,,1966-07-23,60000,122,"맥도생태공원은 강서구 명지동(낙동강하구둑)부터 대저2동(공항램프)까지 하천내 자연적으로 형성된 둔치지역이며, 낙동강하구 천연기념물 179호(철새도래지)로 지정된 지역이다. 이곳은 과거부터 벼농사 등의 농경지로 이용되어 겨울철새들에겐 먹이터겸 쉼터로 활용되던 곳으로, 2006년의 정비사업 및 2009년의 4대강사업 추진 시에도 이를 고려하여 사업이 추진되어, 많은 곳이 겨울철새의 먹이터겸 쉼터로 관리되도록 하였다.한편, 겨울철새에 대한 배려 이외에도 생태공원의 특징을 살려 갈대밭, 연꽃단지, 수생식물원 등을 조성하여 시민들의 볼거리를 만들었고, 그밖에 축구장, 야구장 등 각종 체육시설(9종 22면)과 파고라, 정자 등 휴게시설이 구비되어 있다.",051-941-9728,맥도생태공원 관리사무소,2025-03-27,3360000,부산광역시 강서구
대저생태공원,관광지,"부산광역시 강서구 공항로 1246, (대저1동)",,35.20985086,128.9845591,3430000.0,관리사무소+화장실+주차장,,축구장(3)+야구장(2)+농구장(8)+테니스장(8)+게이트볼장(4)+인라인스케이트장(1),대저생태공원캠핑장,,,1966-07-23,70000,1100,"대저생태공원은 대저수문부터 김해공항램프까지이며, 구포대교하류부부터 천연기념물 제179호(낙동강하구 철새도래지)로 지정되어 있으며, 신덕습지를 비롯한 습지 및 자연초지, 유채꽃단지와 체육시설인 축구장, 야구장등이 조성되어 있는 부산시민이 여가와 휴식을 즐길 수 있는 자연생태 친수공간이다.특히 공원에 조성된 유채꽃 단지(370,000㎡)에서 4월 개최되는 유채꽃 축제는 수많은 관광객을 불러 모으고 있어 새로운 관광 명소로 자리 잡아 시민의 여가와 휴식을 즐기는 곳이다.",051-971-6011,대저생태공원 관리사무소,2025-03-27,3360000,부산광역시 강서구
낙동강제방(강서30리벚꽃길),관광지,"부산광역시 강서구 공항로 1246, (대저1동)",,35.20985086,128.9845591,3430000.0,관리사무소+화장실+주차장,,,,,,2015-03-03,70000,1100,"낙동강제방을 시민공원화하여 산책인들에게 정서함양과 향토애를 고취하기 위해 1992년 강서구에서는 조경으로 철쭉동산 등을 조성하고 시비를 건립하였다. 그렇게 세워진 시비는 구포대교와 낙동대교 사이의 강서쪽 제방이 되는데 금수현 노래비와 이은상 시비는 1992년 2월에, 배재황 시비는 1992년 7월에 조지훈과 박목월 이주홍 시비는 1992년 8월에 제각각 특성을 지닌 아담한 조각으로 세워졌다.강서구의 아름다운 낙동강제방위에 마라톤코스를 조성하여 맥도생태공원과 연계한 시민들의 여가공간 확보 및 주민건강증진을 위하여 우리구에서는 명지동 I.C에서 구포대교까지 L=12.68km구간에 조깅코스를 조성하였다.",051-971-6011,대저생태공원 관리사무소,2025-03-27,3360000,부산광역시 강서구
가덕도,관광지,"부산광역시 강서구 동선길 10, (성북동)",,35.05664068,128.8316554,21073000.0,강서구관광안내소+화장실+주차장,,,,,,1989-01-01,0,248,"가덕도는 보개산이 바다 가운데 침몰되었다가 다시 솟아서 이루어 졌다는 전설이 있는 부산 최대의 섬이다. 최고봉인 연대산(459.4m)을 위시하여 수많은 산들이 펼쳐져 있으며, 해안선을 따라 동북쪽으로 눌차·동선 사이를 이어주는 주변 백사장에서부터 기도원앞 바닷가의 경관, 동남쪽으로 대항 새바지의 넓은 자갈밭과 용두암을 시작으로 펼쳐지는 동백숲과 아동섬일대와 동두말, 가덕도 등대 주위의 깎아지른 듯한 기암괴석, 서남쪽으로 돌아 외양포 해수욕장, 두문의 길게 뻗은 솔섬, 천수말 코바위 등 가덕도는 해금강 절경을 방불케 한다.(수용인원 제한 없음)",051-970-2652,부산광역시 강서구청,2025-03-27,3360000,부산광역시 강서구
갓바위,관광지,전라남도 목포시 남농로 135,전라남도 목포시 용해동 산86-24,34.79372717,126.4210674,6650.0,공중화장실,,,,,,2009-04-27,250,60,"갓바위는 두 사람이 나란히 삿갓을 쓰고 서 있는 모습의 바위로 관광객들이 즐겨찾는 명소이며, 예전에는 배를 타고 나가야만 볼 수 있었던 갓바위를 해상에서 직접 조망할 수 있는 보행교를 바다위에 설치하였다.",061-273-0536,전라남도 목포시청,2025-06-25,4800000,전라남도 목포시
목포자연사박물관,관광지,전라남도 목포시 남농로 135,전라남도 목포시 용해동 7,34.79372717,126.4210674,3170.0,화장실+주차장+기념품판매점,,,박물관,매점,,2003-10-24,300,450,"지구 46억년 자연사를 볼 수 있는 곳으로 다양한 생명체와 관람객이 공존하는 증강현실 사진관 체험,  박물관에 잠든 공룡알 화석을 부화시키는 게임형 AR 체험, 수생 생물이 살고 있는 연못 생태계 위를 거니는 콘텐츠등 다양한 VR, AR콘텐츠와 영상쇼를 제공한다",061-274-3655,전라남도 목포시청,2025-06-25,4800000,전라남도 목포시
김대중노벨평화상기념관,관광지,전라남도 목포시 삼학로 92번길 68,전라남도 목포시 산정동 1481,34.78285177,126.3922506,4730.0,화장실+주차장+기념품판매점,,,박물관,카페테리아,,2013-06-15,200,10,"김대중 前대통령의 업적 및 걸어온 길을 살펴볼 수 있는 곳이다. 평화의 메시지 보내기, 노르웨이 오슬로 시상식장 체험, 노벨평화상 단상 포토존 및 대통령 집무실을 그대로 옮겨놓은 집무실 체험공간에서 대통령이 되어보는 체험을 할 수 있다",061-245-5660,전라남도 목포시청,2025-06-25,4800000,전라남도 목포시
영도대교,관광지,부산광역시 중구 태종로 8,부산광역시 중구 남포동1가 33-9,35.09725344,129.035681,0.0,공중화장실,,,,,부산중구 관광안내소,2006-11-25,2000,0,"영도대교는 일제 강점기 시절 영도와 부산항 사이의 원활한 왕래를 위해 1934년 11월에 준공된 동양최조의 교량이자 국내 유일의 연륙교로써의 역사적인 의미를 지니고 있으며, 한국 전쟁 당시 헤어진 가족들의 기약 없는 이별의 종착지이자 이산가족들에겐 삶의 애환이 서려있는 장소이다.",051-780-0062,부산 시설공단,2023-12-04,3250000,부산광역시 중구
BIFF광장,관광지,부산광역시 중구 비프광장로 36,부산광역시 중구 남포동5가 18-1,35.09862035,129.0287588,0.0,공중화장실,호텔+게스트하우스,,,,,2011-02-24,5000,0,세계적 영화제로 발돋움한 부산국제영화제의 태동지,051-600-4084,부산광역시 중구,2023-12-04,3250000,부산광역시 중구
40계단테마거리,관광지,부산광역시 중구 대청로135번길 13,부산광역시 중구 중앙동4가 38-1,35.10397225,129.0346287,0.0,공중화장실,,,40계단 문화관,,,2003-02-12,500,0,"40계단을 중심으로 조성된 테마거리로 뻥튀기 아저씨,  물동이 진 아이 등의 조형물이 꾸며져있다.",051-600-4046,부산광역시 중구,2023-12-04,3250000,부산광역시 중구
자갈치시장,관광지,부산광역시 중구 자갈치해안로 52,부산광역시 중구 남포동4가 37-1,35.09661444,129.0305818,0.0,화장실+주차장,관광호텔+게스트하우스,,,,,2006-08-11,6217,0,부산의 대표적 명소이자 신선한 활어와 선어를 저렴하게 살 수있는 한국 최대의 전통 수산물시장,051-245-2594,부산 시설공단,2023-12-04,3250000,부산광역시 중구
절물자연휴양림,관광지,제주특별자치도 제주시 명림로 584(봉개동),,33.44004881,126.6252034,3000000.0,관리사무실 1동(매표소)+방문자센터(전시실. 영상상영관)+물품보관실+공중화장실 2동+연못 2개소+어린이놀이터 3개소+주차시설(7.212㎡) 등,숲속의 집 7동 19실+산림문화휴양관 1동10실,,,,,1992-05-26,2000,238,"제주시에서 20분거리에 위치해 있으며, 50여년생 삼나무조림지와 자연림이 조화를 이루는 독특한 경관으로 전국 국립자연휴양림 중 매년 최다 방문객을 바랑하고 있다. 또한 유아숲체험원. 숲해설. 목공예 등 산림체험프로그램을 운영하고 있다",064-728-1510,제주특별자치도 제주시 절물생태관리소,2023-10-30,6510000,제주특별자치도 제주시
김녕관광지,관광지,,제주특별자치도 제주시 구좌읍 김녕리 497-5,33.5548971,126.7654535215,161324.0,관리사무소+화장실(2동)+주차장+샤워탈의장+취사장+여름파출소,,다목적운동장+야영장+피크닉장+광장+조경휴게지,,,,1971-05-20,10000,234,"해양레져스포츠, 캠핑 등 즐길거리가 가득한 제주시 동부 대표 휴양지",064-728-2762,제주특별자치도 제주시 관광진흥과,2023-10-30,6510000,제주특별자치도 제주시
곽지관광지,관광지,,제주특별자치도 제주시 애월읍 곽지리 1566,33.4499564,126.3041171,235020.0,관리사무소+화장실(2동)+주차장+목욕장,,,야영장+조경휴게소+광장,,,2004-07-19,15000,331,접근성이 좋고 바닷물과 노천탕을 동시에 즐길 수 있는 제주시 서부 대표 휴양지,064-728-2762,제주특별자치도 제주시 관광진흥과,2023-10-30,6510000,제주특별자치도 제주시
협재관광지,관광지,,제주특별자치도 제주시 한림읍 협재리 2450,33.3934958502,126.2385968886,214300.0,관리사무소+화장실(4동)+취사장(2동)+샤워탈의장(2동)+주차장,,다목적운동장+해수풀장,야영장+조경휴게소,,,1985-06-21,15000,534,에메랄드 빛 바다색과 비양도 절경을 품고 있는 제주시 서부 대표 휴양지,064-728-2762,제주특별자치도 제주시 관광진흥과,2023-10-30,6510000,제주특별자치도 제주시
제주별빛누리공원,관광지,제주특별자치도 제주시 선돌목동길 60(오등동),제주특별자치도 제주시 오등동 10-34,33.4445529,126.5491863,33637.0,4D입체영상관+천체투영실+천체관측실+전시실,,,,,,2009-03-20,300,100,천문우주과학분야에 대한 호기심을 해결 할 수 있는 문화공간,064-728-8900,제주특별자치도 제주시 관광진흥과,2023-10-30,6510000,제주특별자치도 제주시
노루생태관찰원,관광지,제주특별자치도 제주시 명림로 520(봉개동),,33.4443253,126.6266934,520000.0,사무실 전시실+상시관찰원+사육동+관찰로+어린이놀이시설+파고라 등,,,,,,2007-08-03,300,92,"100여 마리의 노루를 관찰할 수 있고, 자연학습과 생태체험, 오름산행을 즐길 수 있는 열린 시민의 공간입니다",064-728-3611,제주특별자치도 제주시 절물생태관리소,2023-10-30,6510000,제주특별자치도 제주시
감천문화마을,관광지,부산광역시 사하구 감내2로 203(감천동),부산광역시 사하구 감천동 1-14,35.09748533,129.01060359,188177.0,화장실+관광안내소,방가방가게스트하우스+감내어울터+감천골목하우스 등,,작은박물관+도자기+목공예 등,,,2010-02-01,300000,200,한국전쟁 당시 피난민들이 모여산 계단식 마을로 다양한 예술작품 감상 가능,051-220-5922,부산광역시 사하구청,2025-12-12,3340000,부산광역시 사하구
을숙도 철새공원,관광지,,부산광역시 사하구 하단동 1209-1,35.09903966,128.9436455,1907000.0,화장실+주차장+관광안내소,,,,,낙동강하구에코센터,2004-01-01,1500000,300,철새를 보호하는 한편 습지를 비롯한 생태보존 공원,051-209-2000,부산광역시 낙동강관리본부,2025-12-12,3340000,부산광역시 사하구
을숙도 생태공원,관광지,,부산광역시 사하구 하단동 1142,35.11604341,128.94861721,1907000.0,화장실+주차장+관광안내소,,,,,낙동강하구에코센터,2012-11-01,4500000,600,을숙도 상단부로 수생식물이 서식하는 생태의 보고,051-209-2000,부산광역시 낙동강관리본부,2025-12-12,3340000,부산광역시 사하구
낙동강하구아미산전망대,관광지,부산광역시 사하구 다대낙조2길 77(다대동),부산광역시 사하구 다대동 1548-1,35.05265992,128.96069407,10254.0,화장실+주차장+관광안내소,,,,,,2011-02-21,1000000,28,모래섬·철새·낙조 등 천혜의 전경을 조망할 수 있는 전망대,051-265-6863,부산광역시 사하구청,2025-12-12,3340000,부산광역시 사하구
다대포해수욕장,관광지,부산광역시 사하구 몰운대1길 14(다대동),부산광역시 사하구 다대동 482-3,35.04661416,128.96800515,500000.0,화장실+주차장+관광안내소,,갯벌체험+패들보드+서핑보드 (※ 해양스포츠 체험 가능),해수욕장+해변공원+고우니생태길,,,1900-01-01,500000,500,백사장 길이 900m 폭 65~330m의 얕은 수심으로 가족단위 피서지로 유명,051-220-4911,부산광역시 사하구청,2025-12-12,3340000,부산광역시 사하구
다대포 꿈의 낙조분수,관광지,부산광역시 사하구 몰운대1길 14(다대동),부산광역시 사하구 다대동 482-3,35.04661416,128.96800515,2538.0,화장실+주차장+관광안내소,,,물놀이 체험분수+야간 음악분수,,,2010-03-27,2500,156,세계 최대이자 최고의 바닥 음악분수,051-220-5892,부산광역시 사하구청,2025-12-12,3340000,부산광역시 사하구
몰운대,관광지,,부산광역시 사하구 다대동 산144,35.03931428,128.96893979,492300.0,화장실+주차장+관광안내소,,,산책로+낙조전망대+정운공순의비+다대진동헌,,,1972-06-26,240000,230,태종대·해운대와 함께 부산의 3臺 중 하나,051-220-4915,부산광역시 사하구청,2025-12-12,3340000,부산광역시 사하구
중대물빛공원,관광지,경기도 광주시 순암로 307,경기도 광주시 중대동 229번지,37.40272258,127.218054,216372.0,주차장+화장실+공원,,,장미터널+연꽃로드+아치목교 등,,해당없음,2018-01-31,10000,100,"장미터널, 연꽃로드, 아치목교 등이 있는 수변공원",031-760-3763,경기도 광주시청,2025-05-15,5540000,경기도 광주시
팔당물안개공원,관광지,경기도 광주시 남종면 산수로 1897,경기도 광주시 남종면 귀여리 267-10번지,37.50956344,127.3174613,708241.0,주차장+화장실+공원,,,시민의 숲+희망의 숲+코스모스길 등,,해당없음,2018-01-31,10000,300,"시민의 숲, 희망의 숲, 코스모스길, 자전거길이 잘 조성된 공원",031-760-4483,경기도 광주시청,2025-05-15,5540000,경기도 광주시
경안천습지생태공원,관광지,경기도 광주시 퇴촌면 산수로 1159,경기도 광주시 퇴촌면 정지리 456-4번지,37.45920014,127.3051169,162000.0,주차장+화장실,,,조류관찰+자연학습의 장,,해당없음,2007-01-24,10000,115,다양한 수생식물 등 조류관찰과 자연학습의 장,031-760-3763,경기도 광주시청,2025-05-15,5540000,경기도 광주시
경기도자박물관,관광지,경기도 광주시 곤지암읍 경충대로 727,경기도 광주시 곤지암읍 삼리 72-1번지,37.35028421,127.3347877,3328.0,주차장+화장실+공원,,,야외조각공원+장작가마+다래시연장 등,,해당없음,2007-01-24,300,482,우리의 전통 도자문화와 역사를 느낄 수 있는 곳,031-799-1500,한국도자재단,2025-05-15,5540000,경기도 광주시
천진암,관광지,경기도 광주시 퇴촌면 천진암로 1203,경기도 광주시 퇴촌면 우산리 500번지,37.42357313,127.3883989,990000.0,주차장+화장실,,,천주교박물관,,해당없음,2007-01-24,10000,100,천학 강학회를 통해 신앙의 차원인 천주교로 발전시킨 성지,031-764-5953,재단법인 천주교수원교구유지재단,2025-05-15,5540000,경기도 광주시
분원백자자료관,관광지,경기도 광주시 남종면 산수로 1642-1,경기도 광주시 남종면 분원리 116번지,37.49625742,127.3034492,3339.0,주차장+화장실,,,백자자료관,,해당없음,2007-01-24,300,0,조선시대 관영사기의 변천과 도자기역사의 발자취 감상,031-799-1500,경기도자박물관,2025-05-15,5540000,경기도 광주시
남한산성,관광지,경기도 광주시 남한산성면 남한산성로 731,경기도 광주시 남한산성면 산성리 158-1번지,37.47669636,127.1884165,526476.0,주차장+화장실,펜션,,행궁+만해기념관 등,관광식당,해당없음,2007-01-24,10000,945,"역사와 문화, 4계절의 아름다움을 감상할 수 있는 곳",031-8008-5155,남한산성세계문화유산센터,2025-05-15,5540000,경기도 광주시
보문관광단지,관광단지,경상북도 경주시 보문로 446,경상북도 경주시 신평동 375-7,35.843673,129.2869659,8515243.0,도로+동사무소+파출소+소방서+우체국+물레방아광장 등,특급호텔(5개소)+소형호텔(3개소)+콘도미니엄(5개소)+여관(8개소) 등,"회원제 골프장(36홀, 1개소)+퍼브릭골프장(18홀, 1개소)+유희 시설(경주월드) 등",컨벤션 센터+연수 및 수련시설+청소년수련시설+신라밀레니엄+종합스포츠시설+소공원 등,휴게식당+한식요식점+상가 등,,1975-04-04,20000,540,"사계절 관광객이 이용할 수 있는 온천형 관광지, 우아하고 정취있는 전통적 이미지가 창출될 수 있는 내륙형 관광 휴양지",054-779-6082,경상북도 경주시청,2025-09-08,5050000,경상북도 경주시
사라온 이야기 마을,관광지,대구광역시 군위군 군위읍 동서길 49,대구광역시 군위군 군위읍 서부리 44-1,36.236155,128.567733,8140.0,관리사무소+주차장,,,야외쉼터+환희문(정문)+적라촌+적라청+적라골,매표소,,2015-10-01,200,70,"선조들이 살아온 역사와 문화를 적라촌, 적라청, 적라골 3가지 테마로 나누어 재현",054-380-7216,대구광역시 군위군청,2025-08-11,5141000,대구광역시 군위군
김수환 추기경 사랑과 나눔 공원,관광지,대구광역시 군위군 군위읍 군위금성로 270,대구광역시 군위군 군위읍 용대리 424,36.232449,128.599613,32128.0,공원,,,기념관+경당+추기경생가+십자가의 길+평화의 숲+추모정원+중앙광장+잔디광장+옹기가마,,,2018-03-27,30,20,"김수환 추기경의 사랑과 나눔 정신의 계승,확산을 위한 정신문화 공간",054-380-6866,대구광역시 군위군청,2025-08-11,5141000,대구광역시 군위군
팔공산 하늘정원,관광지,,대구광역시 군위군 부계면 동산리 산 74-18,36.023813,128.696761,6000.0,정자+탐방로,,정자+탐방로,정자+탐방로,,,2015-06-12,100,10,"오도암, 비로봉, 동봉, 서봉 등 팔공산의 봉우리들을 자유롭게 다닐 수 있는 오름길",054-380-7943,대구광역시 군위군청,2025-08-11,5141000,대구광역시 군위군
통영루지,관광지,경상남도 통영시 발개로 178,경상남도 통영시 도남동 319-3,34.82440908,128.4241617,164000.0,화장실,,,,,,2017-02-09,2500,350,스카이라인 루지는 탑승자들이 1.5km의 트랙 위를 자유롭게 조정하며 내려올 수 있도록 특별제작된 카트로 연령에 관계없이 누구나 쉽게 배우고 즐길 수 있는 아웃도어 기구.,055-650-0621,경상남도 통영시청,2025-02-13,5330000,경상남도 통영시
별밤미술관 in 선운,관광지,광주광역시 광산구 선운로2번길 40,광주광역시 광산구 선암동 794,35.14604759,126.7732908,40.0,없음,,,,,,2021-04-07,0,0,"코로나19 팬데믹으로 위축된 예술인들의 활동을 장려하고 대중 속에서 꽃피는 전시문화를 위해, 주민들이 즐겨 찾는 거점공간에 비대면 간이 미술관 5개소를 조성 및 운영하고있습니다.  별밤미술관은 탁 트인 야외 공원에 위치하고 있고 저녁 시간에 운영하기 때문에 직장에 다니거나 일을 하느라 바쁜 일상에서 일부러 시간을 낼 필요도 없습니다. 퇴근 후 동네 공원에서 산책하시거나 운동하시면서 좋은 작품을 여유롭게 즐기시기만 하면 됩니다.",062-960-3689,광주광역시 광산구청,2025-02-04,3630000,광주광역시 광산구
별밤미술관 in 신창,관광지,광주광역시 광산구 왕버들로 331,광주광역시 광산구 신창동 1173-2,35.19467258,126.8452966,40.0,없음,,,,,,2021-03-30,0,0,"코로나19 팬데믹으로 위축된 예술인들의 활동을 장려하고 대중 속에서 꽃피는 전시문화를 위해, 주민들이 즐겨 찾는 거점공간에 비대면 간이 미술관 5개소를 조성 및 운영하고있습니다.  별밤미술관은 탁 트인 야외 공원에 위치하고 있고 저녁 시간에 운영하기 때문에 직장에 다니거나 일을 하느라 바쁜 일상에서 일부러 시간을 낼 필요도 없습니다. 퇴근 후 동네 공원에서 산책하시거나 운동하시면서 좋은 작품을 여유롭게 즐기시기만 하면 됩니다.",062-960-3689,광주광역시 광산구청,2025-02-04,3630000,광주광역시 광산구
별밤미술관 in 운남,관광지,광주광역시 광산구 목련로 156,광주광역시 광산구 운남동 799-1,35.17144137,126.8159402,40.0,없음,,,,,,2021-03-22,0,0,"코로나19 팬데믹으로 위축된 예술인들의 활동을 장려하고 대중 속에서 꽃피는 전시문화를 위해, 주민들이 즐겨 찾는 거점공간에 비대면 간이 미술관 5개소를 조성 및 운영하고있습니다.  별밤미술관은 탁 트인 야외 공원에 위치하고 있고 저녁 시간에 운영하기 때문에 직장에 다니거나 일을 하느라 바쁜 일상에서 일부러 시간을 낼 필요도 없습니다. 퇴근 후 동네 공원에서 산책하시거나 운동하시면서 좋은 작품을 여유롭게 즐기시기만 하면 됩니다.",062-960-3689,광주광역시 광산구청,2025-02-04,3630000,광주광역시 광산구
별밤미술관 in 수완,관광지,광주광역시 광산구 풍영정천자전거길 1030,광주광역시 광산구 신가동 1051,35.18597183,126.819001,40.0,없음,,,,,,2021-02-26,0,0,"코로나19 팬데믹으로 위축된 예술인들의 활동을 장려하고 대중 속에서 꽃피는 전시문화를 위해, 주민들이 즐겨 찾는 거점공간에 비대면 간이 미술관 5개소를 조성 및 운영하고있습니다.  별밤미술관은 탁 트인 야외 공원에 위치하고 있고 저녁 시간에 운영하기 때문에 직장에 다니거나 일을 하느라 바쁜 일상에서 일부러 시간을 낼 필요도 없습니다. 퇴근 후 동네 공원에서 산책하시거나 운동하시면서 좋은 작품을 여유롭게 즐기시기만 하면 됩니다.",062-960-3689,광주광역시 광산구청,2025-02-04,3630000,광주광역시 광산구
별밤미술관 in 첨단,관광지,광주광역시 광산구 첨단중앙로182번길 39,광주광역시 광산구 쌍암동 653-1,35.22222807,126.8442514,126.79336,없음,,,,,,2020-09-17,0,0,"코로나19 팬데믹으로 위축된 예술인들의 활동을 장려하고 대중 속에서 꽃피는 전시문화를 위해, 주민들이 즐겨 찾는 거점공간에 비대면 간이 미술관 5개소를 조성 및 운영하고있습니다.  별밤미술관은 탁 트인 야외 공원에 위치하고 있고 저녁 시간에 운영하기 때문에 직장에 다니거나 일을 하느라 바쁜 일상에서 일부러 시간을 낼 필요도 없습니다. 퇴근 후 동네 공원에서 산책하시거나 운동하시면서 좋은 작품을 여유롭게 즐기시기만 하면 됩니다.",062-960-3689,광주광역시 광산구청,2025-02-04,3630000,광주광역시 광산구
소촌아트팩토리,관광지,광주광역시 광산구 소촌로85번길 14-9,광주광역시 광산구 소촌동 845,35.15262857,126.7912355,2454.0,화장실+주차장,,,,,,2015-12-24,102,23,"광주 최초의 산업단지 문화재생시설인 소촌아트팩토리는 낡고 오래된 민방위비상대피시설(방공호)과 아시아문화중심도시 홍보관(아시아문화마루)으로 사용되었던 폐컨테이너를 조합해 리뉴얼한 복합문화공간이다.2015년 개관하였으며 큐브미술관, 아르코공연연습센터, 유노윤호 작은도서관 HUG및 부대시설 등을 갖추고 있다. 오랫동안 쓸모없이 방치되었던 유휴공간이 문화예술 콘텐츠 융합을 통해 시민들의 일상을 풍요롭게 하는 혁신공간으로 재탄생한 것이다.",062-960-3688,광주광역시 광산구청,2025-02-04,3630000,광주광역시 광산구
송정작은미술관,관광지,광주광역시 광산구 송정로30번길 25,광주광역시 광산구 도산동 964-2,35.13510527,126.7933629,393.0,화장실,,,,,,2021-07-07,126,3,"광주송정역세권 도시재생사업으로 개관한 미술관으로써, 광산 송정역세권의 입지적 특성을 고려하여 송정역 이용객들이 1913시장, 골목상권으로 유입될 수 있도록 볼 거리 제공하고 지역의 인문 문화와 어우러지고 시민이 함께하는 열린 공간으로 운영",062-960-3688,광주광역시 광산구청,2025-02-04,3630000,광주광역시 광산구
수완호수공원,관광지,광주광역시 광산구 장신로82번길 57,광주광역시 광산구 장덕동 1681,35.18794733,126.8202489,84835.0,화장실(2),,,,,,2009-11-12,500,0,밤낮으로 호수공원의 다른 정취를 느낄 수 있으며 롯데마트를 비롯한 대형마트와 상업시설이 있어 편하게 주차 및 쇼핑을 이용할 수 있다.,062-960-8677,광주광역시 광산구청,2025-02-04,3630000,광주광역시 광산구
쌍암공원,관광지,광주광역시 광산구 첨단중앙로182번길 39,광주광역시 광산구 쌍암동 653-1,35.22222807,126.8442514,147962.0,주차장(2)+화장실(3),,,,,,1998-02-21,800,194,"한가운데 위치하고 있는 호수, 호수주변을 따라 잘 조성된 철쭉꽃 숲들과 소나무숲이 운치를 더한다.",062-960-8702,광주광역시 광산구청,2025-02-04,3630000,광주광역시 광산구
동백섬,관광지,부산광역시 해운대구 동백로 116,부산광역시 해운대구 우동 708-1,35.15234205,129.1513619,93.649,공중화장실 2동+도로+전망대 1개소+수목+잔디 1개소,관광호텔 1동,,관광유람선 1개소,,,1988-07-19,700000,101,해운대해수욕장 남쪽 끝에 위치한 동백섬은 율지와 연계된 육계도로 동백섬의 자연 그대롱를 공원으로 조성한 곳으로 2005년 APEC 정상회의 장소인 누리마루 APEC하우스가 자리해 있다.,051-749-4081,부산광역시 해운대구청,2025-01-01,3330000,부산광역시 해운대구
요트올림픽동산지구,관광지,부산광역시 해운대구 APEC로 30,부산광역시 해운대구 우동 1413-4,35.16578256,129.1350266,117.958,관리사무소 1동+공중화장실 3동+도로포장+원형분수 1개소+연못 1개소+파고라 1동+기념동산 1개소+녹지 1개소,,놀이광장 1개소+잔디광장 1개소+산책로  1개소+놀이마당 1개소+어린이놀이터 1개소+수영장 1동,식물원 1개소+야외전시장,,,1988-07-19,800000,398,360여척의 요트를 계류할  수 있는 요트경기장이 있는 곳으로 요트와 보트 등이 파란 바다와 마린시티의 마천루를 배경으로 어우러져 이국적인 풍경을 자아내는 곳이다. 각종 국제대회는 물론 해양스포츠와 국제영화제를 비롯한 다양한 문화행사가 개최된다,051-749-4081,부산광역시 해운대구청,2025-01-01,3330000,부산광역시 해운대구
봉은사,관광지,서울특별시 강남구 봉은사로 531,서울특별시 강남구 삼성동 73,37.5144,127.0582,0.0,화장실+주차장,,,,,,1900-01-01,1000,100,794년 창건된 천년 고찰로 도심 내 전통 사찰. 강남구 대표 관광명소.,02-3218-4800,봉은사,2025-12-24,3110000,서울특별시 강남구
홍대걷고싶은거리,관광지,서울특별시 마포구 어울마당로 일대,서울특별시 마포구 서교동 348-40 일대,37.5563,126.9236,0.0,,,,,카페+음식점,,2000-01-01,5000,0,홍대입구역 인근 젊음의 거리. 버스킹과 프리마켓으로 유명한 마포구 대표 관광명소.,02-3153-8654,마포구청,2025-12-24,3120000,서울특별시 마포구
서울숲,관광지,서울특별시 성동구 뚝섬로 273,서울특별시 성동구 성수동1가 685,37.5447,127.037,1150000.0,화장실+주차장+자전거도로,,자전거대여+피크닉,생태숲+문화예술공원+곤충관,,,2005-06-18,10000,500,성수동 대표 관광지. 400만 그루 이상 나무와 다섯 테마파크. 한국관광 100선 선정.,02-460-2905,서울특별시 성동구청,2025-12-24,3200000,서울특별시 성동구
경복궁,관광지,서울특별시 종로구 사직로 161,서울특별시 종로구 세종로 1-1,37.5796,126.977,432703.0,화장실+주차장+안내소,,,국립고궁박물관,매표소,,1395-01-01,5000,200,"조선왕조 정궁. 1395년 창건, 북악산을 배경으로 한 7,700여 칸의 전각. 종로구 대표 관광명소.",02-3700-3900,문화재청 경복궁관리소,2025-12-24,3110000,서울특별시 종로구
화성행궁,관광지,경기도 수원시 팔달구 정조로 825,경기도 수원시 팔달구 남창동,37.2825,127.019,0.0,화장실+주차장+안내소,,,수원화성과 연계,매표소,,1789-01-01,3000,150,수원화성의 행궁. 정조대왕이 부왕의 능을 참배할 때 머물던 곳. 수원 대표 관광명소.,031-228-4677,수원시청,2025-12-24,4110000,경기도 수원시
전주한옥마을,관광지,전북특별자치도 전주시 완산구 기린대로 99,전북특별자치도 전주시 완산구 남노송동,35.815,127.15,0.0,화장실+주차장+관광안내소,한옥체험숙박,,전통체험,음식점+카페,,1977-01-01,10000,500,700여 채 한옥이 군락을 이룬 국내 최대 한옥촌. 전주 대표 관광명소.,063-282-1330,전주시청,2025-12-24,4611000,전북특별자치도 전주시
갓바위,관광지,전라남도 목포시 용해동 산86-24,전라남도 목포시 용해동 산86-24,34.787,126.381,0.0,화장실+전망대,,,,,,1980-01-01,500,50,목포 대표 관광명소. 유달산에 위치한 전망대와 갓 모양 바위. 06:00~23:00 무료 개방.,061-270-8433,목포시청,2025-12-24,4613000,전라남도 목포시
독도,관광지,경상북도 울릉군 울릉읍 독도이사부길 55,경상북도 울릉군 울릉읍 독도리 산1-96,37.242,131.865,0.0,등대+선착장,,,,,,1982-11-16,200,0,동도·서도와 부속도서로 이루어진 천연기념물. 울릉도 저동항에서 배편으로 입도 가능.,054-790-6641,독도관리사무소,2025-12-24,4790000,경상북도 울릉군
코엑스 아쿠아리움,관광지,서울특별시 강남구 영동대로 513,서울특별시 강남구 삼성동 159,37.5126,127.0585,0.0,,,,,,,2000-01-01,3000,500,"국내 최대 규모 수족관. 650여 종 4만여 마리, 유리터널·인어공주 쇼·먹이주기 체험.",02-6002-6200,코엑스,2025-12-24,3110000,서울특별시 강남구
별마당도서관,관광지,서울특별시 강남구 영동대로 513 스타필드 코엑스몰 B1,서울특별시 강남구 삼성동 159,37.5125,127.059,0.0,,,,,,,2000-01-01,500,0,"5만 권 이상 장서, SNS 랜드마크. 북토크·강연 등 문화행사.",,신세계,2025-12-24,3110000,서울특별시 강남구
스타필드 코엑스몰,관광지,서울특별시 강남구 영동대로 513,서울특별시 강남구 삼성동 159,37.5128,127.0588,0.0,,,,,,,2000-01-01,10000,2000,아시아 최대 지하쇼핑몰. 패션·뷰티·메가박스·F&B.,,신세계,2025-12-24,3110000,서울특별시 강남구
압구정 로데오거리,관광지,서울특별시 강남구 압구정로 지상 일대,서울특별시 강남구 압구정동 일대,37.5275,127.0283,0.0,,,,,,,2000-01-01,5000,0,강남 패션 중심지. 명품·보세·갤러리아·카페·레스토랑.,02-3440-6114,강남구청,2025-12-24,3110000,서울특별시 강남구
경의선책거리,관광지,서울특별시 마포구 와우산로35길 50-4 일대,서울특별시 마포구 연남동 일대,37.5607,126.8332,0.0,,,,,,,2000-01-01,1000,0,폐선 경의선을 책 테마거리로 재생. 책·문구·소품·조형물.,02-3153-8654,마포구청,2025-12-24,3120000,서울특별시 마포구
경의선숲길 연트럴파크,관광지,서울특별시 마포구 양화로 160,서울특별시 마포구 연남동,37.562,126.925,0.0,,,,,,,2000-01-01,2000,0,도심 속 녹색 공간. 잔디밭·산책로·카페·샵.,02-3153-8654,마포구청,2025-12-24,3120000,서울특별시 마포구
홍대 벽화거리,관광지,서울특별시 마포구 와우산로29길 22 일대,서울특별시 마포구 서교동 일대,37.5545,126.923,0.0,,,,,,,2000-01-01,500,0,홍대 정문 좌측 골목. 벽화·카페·갤러리.,02-3153-8654,마포구청,2025-12-24,3120000,서울특별시 마포구
연남동 거리,관광지,서울특별시 마포구 연남로 일대,서울특별시 마포구 연남동,37.563,126.926,0.0,,,,,,,2000-01-01,3000,0,개성 넘치는 카페·식당·샵. 한·중·일식·이국적 분위기.,02-3153-8654,마포구청,2025-12-24,3120000,서울특별시 마포구
성수동 카페거리,관광지,서울특별시 성동구 연무장길 일대,서울특별시 성동구 성수동1가,37.5445,127.055,0.0,,,,,,,2000-01-01,2000,0,공장 재생 카페·브랜드숍. 한국관광 100선 성수동 거리.,02-2286-5114,성동구청,2025-12-24,3200000,서울특별시 성동구
젠틀몬스터 하우스 노웨어,관광지,서울특별시 성동구 연무장5길 8,서울특별시 성동구 성수동1가 656,37.5448,127.0545,0.0,,,,,,,2000-01-01,300,0,젠틀몬스터·탐버린즈·어티슈·누데이크 복합 문화공간.,,젠틀몬스터,2025-12-24,3200000,서울특별시 성동구
성수동 수제화거리,관광지,서울특별시 성동구 뚝섬로9길 일대,서울특별시 성동구 성수동1가,37.5435,127.052,0.0,,,,,,,2000-01-01,1000,0,350여 개 수제화 업체. 국내 수제화 70% 집중.,02-2286-5114,성동구청,2025-12-24,3200000,서울특별시 성동구
성수연방,관광지,서울특별시 성동구 연무장15길 11,서울특별시 성동구 성수동1가,37.545,127.056,0.0,,,,,,,2000-01-01,500,0,낡은 화학공장 재생. 라이프스타일숍·카페·양조장.,,성수연방,2025-12-24,3200000,서울특별시 성동구
북촌한옥마을,관광지,서울특별시 종로구 계동길 37,서울특별시 종로구 가회동 11,37.5825,126.985,0.0,,,,,,,2000-01-01,3000,0,경복궁·창덕궁 사이 전통 한옥마을. 전통체험·한옥음식.,02-3707-8388,서울시 한옥포털,2025-12-24,3110000,서울특별시 종로구
인사동 거리,관광지,서울특별시 종로구 인사동길 62,서울특별시 종로구 인사동,37.571,126.9855,0.0,,,,,,,2000-01-01,5000,0,골동품·화랑·고가구·민속공예·쌈지길·경인미술관.,02-734-0222,종로구청,2025-12-24,3110000,서울특별시 종로구
광화문광장,관광지,서울특별시 종로구 세종대로 172,서울특별시 종로구 세종로 1-1,37.572,126.9769,0.0,,,,,,,2000-01-01,10000,0,경복궁 남문 앞 광장. 세종대왕·이순신 동상·야간 조명.,02-3700-3900,문화재청,2025-12-24,3110000,서울특별시 종로구
창덕궁,관광지,서울특별시 종로구 율곡로 99,서울특별시 종로구 와룡동 2-71,37.5794,126.991,0.0,,,,,,,2000-01-01,3000,100,유네스코 세계문화유산. 비원·후원 산책.,02-3668-2300,문화재청 창덕궁관리소,2025-12-24,3110000,서울특별시 종로구
수원화성 장안문,관광지,경기도 수원시 팔달구 정조로 910,경기도 수원시 팔달구 장안동,37.29,127.012,0.0,,,,,,,2000-01-01,2000,0,수원화성 북문. 장안공원·화홍문·방화수류정·수원전통문화관.,031-228-4677,수원시청,2025-12-24,4110000,경기도 수원시
팔달산,관광지,경기도 수원시 팔달구 장안동 산1,경기도 수원시 팔달구 장안동,37.2822,127.0175,0.0,,,,,,,2000-01-01,1000,0,해발 128m. 서장대·삼일독립기념탑·야경.,031-228-4677,수원시청,2025-12-24,4110000,경기도 수원시
수원화성 서장대,관광지,경기도 수원시 팔달구 팔달산 정상,경기도 수원시 팔달구 장안동,37.2825,127.018,0.0,,,,,,,2000-01-01,500,0,팔달산 정상 군사 지휘본부. 정조 군사훈련·수원 야경.,031-228-4677,수원시청,2025-12-24,4110000,경기도 수원시
수원화성 팔달문,관광지,경기도 수원시 팔달구 정조로 800,경기도 수원시 팔달구 남창동,37.281,127.0185,0.0,,,,,,,2000-01-01,2000,0,수원화성 남문. 화성어차·무예24기 시범.,031-228-4677,수원시청,2025-12-24,4110000,경기도 수원시
덕진공원,관광지,전북특별자치도 전주시 덕진구 권삼득로 390,전북특별자치도 전주시 덕진구 덕진동,35.83,127.13,0.0,,,,,,,2000-01-01,5000,200,덕진호수·연꽃·음악분수. 24시간 무료.,063-281-8661,전주시청,2025-12-24,4611000,전북특별자치도 전주시
전주동물원·전주드림랜드,관광지,전북특별자치도 전주시 덕진구 소리로 68,전북특별자치도 전주시 덕진구 소리동,35.838,127.125,0.0,,,,,,,2000-01-01,3000,150,동물원·레트로 드림랜드. BTS 촬영지.,063-281-2661,전주시청,2025-12-24,4611000,전북특별자치도 전주시
팔복예술공장,관광지,전북특별자치도 전주시 완산구 팔복로 55,전북특별자치도 전주시 완산구 팔복동,35.822,127.145,0.0,,,,,,,2000-01-01,500,0,옛 공장 예술 재생. 예술놀이터·카페·아트샵. 무료.,063-281-5351,전주시청,2025-12-24,4611000,전북특별자치도 전주시
국립무형유산원,관광지,전북특별자치도 전주시 완산구 쑥고개로 249,전북특별자치도 전주시 완산구 효자동,35.818,127.138,0.0,,,,,,,2000-01-01,1000,100,무형문화유산 전시·체험·공연·교육.,063-280-7500,국립무형유산원,2025-12-24,4611000,전북특별자치도 전주시
목포해상케이블카,관광지,전라남도 목포시 해양대학로 240,전라남도 목포시 죽교동 516-101,34.789,126.38,0.0,,,,,,,2000-01-01,1200,848,국내 최장 3.23km 해상케이블카. 북항-유달산-고하도. 크리스탈 캐빈.,061-244-2600,목포해상케이블카,2025-12-24,4613000,전라남도 목포시
유달산 달성공원,관광지,전라남도 목포시 유달산로 92,전라남도 목포시 상동,34.788,126.382,0.0,,,,,,,2000-01-01,2000,100,해발 228m 유달산. 소요정·조각공원·달성사·목포의 눈물 노래비.,061-270-8433,목포시청,2025-12-24,4613000,전라남도 목포시
목포스카이워크,관광지,전라남도 목포시 해양대학로 59,전라남도 목포시 죽교동,34.7875,126.378,0.0,,,,,,,2000-01-01,300,0,유리 바닥 전망 데크. 다도해·영산강 조망.,061-270-8433,목포시청,2025-12-24,4613000,전라남도 목포시
평화광장,관광지,전라남도 목포시 평화로 82,전라남도 목포시 상동,34.786,126.384,0.0,,,,,,,2000-01-01,1000,0,목포 평화의 소녀상·해상 전망. 24시간 무료.,061-270-8433,목포시청,2025-12-24,4613000,전라남도 목포시
나리분지,관광지,경상북도 울릉군 서면 나리,경상북도 울릉군 서면 나리리,37.505,130.858,0.0,,,,,,,2000-01-01,500,0,울릉도 유일 평지. 전망대·울라 조형물·나리촌식당·알봉 숲길.,054-790-6641,울릉군청,2025-12-24,4790000,경상북도 울릉군
도동마을,관광지,경상북도 울릉군 울릉읍 도동리,경상북도 울릉군 울릉읍 도동리,37.484,130.908,0.0,,,,,,,2000-01-01,1000,0,울릉 관문. 울릉역사문화체험센터·옛 군수관사·도동소공원·도동항 야경.,054-790-6641,울릉군청,2025-12-24,4790000,경상북도 울릉군
저동마을·촛대바위,관광지,경상북도 울릉군 울릉읍 저동리,경상북도 울릉군 울릉읍 저동리,37.49,130.902,0.0,,,,,,,2000-01-01,500,0,촛대바위·냉동창고·관해정. 마을 산책·로컬 투어.,054-790-6641,울릉군청,2025-12-24,4790000,경상북도 울릉군
성인봉·나리환승선,관광지,경상북도 울릉군 서면 남양리,경상북도 울릉군 서면 남양리,37.498,130.865,0.0,,,,,,,2000-01-01,300,0,울릉도 최고봉(984m). 나리환승선·전망. 등산·자연경관.,054-790-6641,울릉군청,2025-12-24,4790000,경상북도 울릉군
